category_name,name,rating,votes,address,Latitude,Longitude
Banquet_Halls,Shree Lakshmi Function Hall,4.1,9,"26, New Thiruvalam Road Vit Road, KATPADI VELLORE, Vellore - 632002, Near Chittoor Bus Stand",12.9682425,79.1479022
Banquet_Halls,Lts Mahal Ac,5,9,"-203/1B2 6B , Ramalingam Nagar, Arni Road, Edayansathu, Vellore - 632002, Near HP Petrol Bunk",12.8725151,79.1337167
Banquet_Halls,Pm Mahal Ac,4.5,4,"5/4, Vellore to Arni Road-Adukkamparai, Adukkamparai, Vellore - 632011, Opposite to EB Office",12.844414,79.1351022
Banquet_Halls,Dhanamsathyan Mahal Ac,4.8,4,"1/118, Dharmapuri Main Road, Kakankar Railway Station, Vellore - 635654, Kakangarai",12.4095472,78.5084427
Banquet_Halls,Ghayathri Mini Hall Ac,5,4,"18, Arni Road, Bagayam, Vellore - 632002",12.8926573,79.13651
Banquet_Halls,Hotel Mount Paradise,3.7,4,"37, Vellore Bye Pass Road, Sathuvacheri, Vellore - 632009, Next to Collector Office",12.9348756,79.1517627
Banquet_Halls,Baby Residency,4,2,"7, Officers Line Anna Salai, Krishna Nagar, Vellore - 632001, Opp Dig Bangla",12.9036754,79.1318874
Banquet_Halls,Sri Narayani Mahal,4.5,2,"rumalaikodi, Ariyur, Vellore - 632055, Near Golden Temple",12.8764293,79.0287526
Banquet_Halls,Durga Mahal Ac,4.1,6,"padi to Gudiyattam Road, Katpadi Road, KATPADI VELLORE, Vellore - 632002, Kizhvadugankuttai",12.9748544,79.1367606
Banquet_Halls,Srinivas Thirumana Mandapam,3.5,6,"6 Vaisha Complex, Arni Road, Bagayam, Vellore - 632002, Near Govt Arts College",12.8422225,79.1341166
Banquet_Halls,Benzz Park,3.9,5073,"4, Dharmaraja Koil Street, Old Katpadi Road, Vellore Ho, Vellore - 632001, Next to Pachayappas Silk & Old National Theatre",12.9268137,79.1334995
Banquet_Halls,LTS Mahal AC,4.9,5073,"203/1B2 6B, Ramalingam Nagar, Edayansathu, Vellore - 632002, Near HP Petrol Bunk",10.8242596,78.6717751
Banquet_Halls,Bagiyam & Nadham Function H..,4.5,5,"ST FLOOR LRK EMPIRE BUILDING, # 58 ANNA SALAI, KRISHNA NAGAR, Vellore - 632001, NEXT To LAKSHMI THEATER",12.9024411,79.1313618
Banquet_Halls,Palar Residency,3.5,5,"2/16 Vellore City Centre, Anna Salai, Officers Line, Vellore Ho, Vellore - 632001, Opposite Voorhees School",12.9130498,79.1316569
Banquet_Halls,Sri Gajalakshmi Arangam,4.1,5,", Arni Road, Sainathapuram, Vellore - 632001, Near Pillaiyar Kovil Opposite",12.8963277,79.1352724
Banquet_Halls,Baby Mahal Ac,4.4,5," No 10 New No 131, Masilamani Mudaliar Hostel Road, Vellore HO, Vellore - 632001, Near Dhandapani Muthaliyar Mandapam",12.9083799,79.1303074
Banquet_Halls,A S Gurusamy Mahal Ac,4.5,460,"nnai to Siththur Main Road, Pennai Kutroad, Tiruvalam, Vellore - 632515",12.9739017,79.2649818
Banquet_Halls,Tamil Mahal Thirumana Manda..,4.2,460,"icut Road, Walajapet, Vellore - 632513, Nearby NH Bridge Anaicut Road",43.1938516,-71.5723953
Banquet_Halls,A S Gurusamy Mahal Ac,4.3,25,"padi to Chennai Salai, VIT Road, Sevur, Vellore - 632106",12.9682425,79.1479022
Banquet_Halls,Ksm Mahal,4.1,25,"24/25, Kannan Nagar Sripuram Main Road, Ariyur, Vellore - 632055, Near Golden Temple",12.9704203,80.1891084
Banquet_Halls,A S Gurusamy Mahal Ac,4.3,122,"padi to Chennai Salai, VIT Road, Sevur, Vellore - 632106",12.9682425,79.1479022
Banquet_Halls,Darling Residency,4.2,122,"11/8, Anna Salai, Krishna Nagar, Vellore - 632001, Near Roundtana",12.9036744,79.1318872
Banquet_Halls,GRT Regency Sameera Hotel,4.3,7659,"145, New Bypass Road, Vellore Fort, Vellore - 632004, Opposite Green Circle",12.9320214,79.13814
Banquet_Halls,Hotel Aavanaa Inn,3.4,7659,"144, Arcot Road, Vellore Bazaar, Vellore - 632004, Opposite CMC Hospital",12.9320691,79.1475031
Banquet_Halls,Surabi International Hotel,4,5162,"33, Officers Line, Vellore Ho, Vellore - 632001, Opposite Co Operative Bank",12.9057072,79.1319297
Banquet_Halls,Raja Rani Residency,3.8,5162,"1A, TNHB Phase 1, Krishnagiri Main Road, Tirupattur, Tirupattur - 635601",12.4841998,78.55521
Banquet_Halls,Sri Annamalaiyar Residency,3.8,1601,"27, New Katpadi Road, Vellore - 632004, Near Green Circle",12.93018,79.134771
Banquet_Halls,P Dhandapani Mudaliar Mahal,4.1,1601,"7/1, Masilamani Mudaliar Hostel Road, Krishna Nagar, Vellore - 632001, Near New Corporation Building",12.908708,79.1303007
Banquet_Halls,Sangamam Mahal,3.9,1464,"34, Officer's Line, Vellore Ho, Vellore - 632001, Near Surabi Residency",12.9138879,79.1320772
Banquet_Halls,Pmp Dhanalakshmi Mahal,4.1,1464,"C1, C2, C3, P M P Dhanalakshmi Mahal, Sathuvacheri, Vellore - 632009, Valallar",12.9375214,79.1645542
Banquet_Halls,A S Guruswamy Mahal,4.1,437,"4, Ponnai Thiruvalam Road, Tiruvalam, Vellore - 632515",12.9946357,79.2616642
Banquet_Halls,Gayathri Mahal,4,437,"82,Guruthoppu,Sathuvachari,Vellore., Sathuvacheri, Vellore - 632009, Allahabad Bank Near",12.9422134,79.1860302
Banquet_Halls,Azhagambal Krishnaswamy Mud..,3.8,429,"236, Ariyarur Road ,Kamaraj Nagar, Thorapadi, Vellore - 632002",10.4712041,79.5753025
Banquet_Halls,G S Mahal,3.7,429,"534, Bangalore Road, Konavattam Vellore, Vellore - 632013",12.9222776,79.110976
Banquet_Halls,Hotel Grand Krishna,3.5,413,"171, Arcot Main Road, Alamelumangapuram, Vellore - 632009, Near Bangalore Highway",12.9360848,79.1570461
Banquet_Halls,Gvrs Radha Vilvam Thirumana..,3.8,413,"42, 7th East Main Road, Gandhi Nagar Vellore, Vellore - 632006",12.9574912,79.1417141
Banquet_Halls,Spk Mahal Walajapet,4,396,"havabalan Nagar, Ammoor Road, Walajapet, Vellore - 632513",12.945122,79.3466428
Banquet_Halls,Rani Mahal Kalyana Mandapam,3.9,396,"23, Officers Line, Krishna Nagar, Vellore - 632001",12.9131904,79.1322528
Banquet_Halls,Thillai Mahal,3.7,373,"48, Thennandiyalam, Melvisharam, Nandiyalam, Vellore - 632517",12.9274056,79.2664986
Banquet_Halls,Balaji Mahal,4.3,373,"liyappa Nagar, Thangal, Thangal, Vellore - 632513",12.917063,79.3810485
Banquet_Halls,Dev Paradise Lodge,4.2,292,"1,, Dharumapuri Main Road, Tirupattur Bazaar, Vellore - 635602, Near Raja Rani Hotel",12.4573994,78.5547283
Banquet_Halls,Sri Kumaran Mahal,3.8,292,"72, Arcot Road, NH-47, Alamelumangapuram, Vellore - 632009, Near Sarva Sandharam Government Office",12.9341217,79.1507701
Banquet_Halls,Thanjammal Duraiswamy Mudal..,3.9,288,"njammal Duraiswamy Mudaliyar Kalyana Mandapam, #1/4, Agathi Krishnappa Chetty Street, Vellore Ho, Vellore - 632001, Vellore",12.920389,79.1368918
Banquet_Halls,V A K Vijaya Mahal,3.7,288,"ranampet, Gudiyattam, Gudiyattam Railway Station, Vellore - 635803",14.1969204,79.1554591
Banquet_Halls,Thuluva Velaalar Marriage H..,3.8,286,"toorvellore Highway (Sh9), Suthanthira Ponvizha Nagar, Gandhi Nagar, Gandhi Nagar East, Vellore - 632006",23.2156354,72.6369415
Banquet_Halls,Hotel Kumaran Millenium Res..,3.7,286,",, Katpadi Highway Road Thiru Nagar, Thiru Nagar, Vellore - 632006, Near Rangalaya Kalyana Mandapam",12.9552327,79.136854
Banquet_Halls,Nathan Mahal,3.5,265,"a Nayagam, Krishna Nagar Extension, Tollgate, Palavansathu, Rn Palayam Road, Rn Palayam, Vellore - 632001",12.8999023,79.1296629
Banquet_Halls,RAMANI SHANKAR MAHAL,4.5,265,"48, Chennai, Vellore - 632517",12.9530447,79.1371026
Banquet_Halls,Btm Mahal,3.6,261,"24, BTM Mahal, 1st West Cross Road, Gandhi Nagar Vellore, Vellore - 632006, Near Silk Mill Bus Stop",12.9502618,79.1311277
Banquet_Halls,S J S Mahal Sholighur,3.7,261,"linghur, Sholingur, Vellore - 631102",13.1115847,79.4310052
Banquet_Halls,KKR Manikkammal Mahal,4,198,"apulam , Puthur Vellore, Sh126, Arcot, Arcot, Arakkonam Ocheri Road, Panapakkam, Vellore - 631052",12.8960454,79.5095475
Banquet_Halls,R N Function Palace Kalayan..,3.9,198,"23, Officers Line, Vellore Ho, Vellore - 632001",12.9131904,79.1322528
Banquet_Halls,Mangalaraman Marriage Hall,3.5,186,"ariyastreet , Ezhil Nagar, Krishna Nagar, Rv Nagar, Ezhi Nagar Road, Krishna Nagar, Vellore - 632001",12.8928532,79.1298045
Banquet_Halls,Royal Palace Kalyana Mandap..,3.8,186,"304, Bangalore Road, Vellore Ho, Vellore - 632001, Konavattam",12.9222838,79.1108903
Banquet_Halls,Sri Lalitha Mahal,3.8,186,"upattur, Tirupattur - 635601, Near State Bank",12.5035105,78.5774408
Banquet_Halls,Hasini Mahal,3.6,186,"ruvalam, Vellore - 632515",12.9823036,79.2592105
Banquet_Halls,R N Function Palace,3.9,228," 92, Officers Line, Anna Nagar, Vellore - 632001, Next Rani Mahal",12.9002661,79.1312036
Banquet_Halls,Nandini Mahal,4.3,228,". Vattam, Jolarpettai, Vellore, Palnankuppam Kootu Road, Palnankuppam Kootu Roadtirupathur Main Road, Jolarpettai, Vellore - 635851",12.3711699,78.5868125
Banquet_Halls,Vkr Mahal,3.8,185,"24b, Sannathi Veedhi, Pallikonda, Vellore - 635809, Near Ranganathar Temple",12.9127033,78.9383554
Banquet_Halls,Sri Vishnu Mahal,3.5,185," Road, Walajapet, Vellore - 632513",12.9254169,79.3640845
Banquet_Halls,Priya Mahal,3.5,141,"ayam, Vellore, Arni Road, Bagayam, Vellore - 632002, Otteri Bus Stop",12.8844528,79.1356534
Banquet_Halls,Priya Mahal,3.5,141,"2/91, Otteri Road-Bagayam, Vellore - 632002, Otteri Bus Stop",12.8846368,79.1375778
Banquet_Halls,M L Marriage Hall,3.8,141,"padi, Vellore - 632007, VIT College Road, Old Katpadi Near Chennai Bakery",12.9676021,79.1449757
Banquet_Halls,Radha Manjunath Marriage Ha..,3.4,141,"127, Pallikonda, Vellore - 635809",12.9043057,78.9411778
Banquet_Halls,G K Mahal,3.7,140,"upet, Annasalai Main Road, Melvishram Vellore, Vellore - 632509, Melvisharam",12.9170943,79.2783481
Banquet_Halls,MTS Thirumanamandapam,3.7,140,"ruthani Road, Sholingur, Vellore - 631102, Opposite Hp Petrol Bunk",13.123617,79.424612
Banquet_Halls,Vpn Mahal,3.8,139," Mahal 3A, Annadhana Cahathiram Road, Sholingur, Vellore - 631102, Near Thakangulam",13.1115847,79.4310052
Banquet_Halls,M.m.e.s Function Hall,4.4,139,", Navlock, Annasalai Main Road, Melvishram Vellore, Vellore - 632509, Opps Uamantpet Mark",12.9170943,79.2783481
Banquet_Halls,Sri Selva Vinayagar Mahal,4.1,133,"pamaram St, Velapadi, Vellore - 632001",12.9030716,79.1417746
Banquet_Halls,Dg Mahal,3.9,133,"asamangalam Bus Stop, KATPADI VELLORE, Vellore - 632002",12.9593369,79.1371923
Banquet_Halls,Ammai Appar G S Mahal,3.8,121,"4E, Arcot Main Road, Alamelumangapuram, Vellore - 632009, Opposite Krishna Mahal",12.9402399,79.1721099
Banquet_Halls,Ranjan Mahal,3.6,121," Road, Poigai, Vellore - 632114",12.9143376,79.058856
Banquet_Halls,Vasavi Kalyanamandapam,3.5,117,"16/40, Kannigaparameswari Koil Street, Vellore Bazaar, Vellore - 632004",12.9266373,79.1393338
Banquet_Halls,Baby Mahal,3.5,117,"ional Highway 46, Abdullah Puram, Vellore - 632010",12.9274914,79.1251292
Banquet_Halls,Dhanabagyam Kalyana Mandapa..,3.6,116,"hanthira Ponvizha Nagar, 4th East Main Road, Gandhi Nagar East, Vellore - 632006, Gandhi Nagar",12.954294,79.1407447
Banquet_Halls,Ajb Mahal,3.7,116,"1, Durgha Street, Tirupattur Fort, Vellore - 635602, Near Kottai Sivan Kovil",12.4573994,78.5547283
Banquet_Halls,Avm Mahal,3.4,112,"/1 Palanisami St, Tirupattur, Vellore - 635601, Opp Daily Mart",12.5035105,78.5774408
Banquet_Halls,V.s.b.vijay Mahal,3.7,112,"inchipuram Road, Virinjipuram, Vellore - 632104",12.9238664,79.0187661
Banquet_Halls,KSM Mahal,4.1,111,"alakshmi Nagar Kamaraj Nagar Thorapadi Vellore, Ariyur Vellore, Vellore - 632055",12.8755371,79.1030014
Banquet_Halls,Ckc Marriage Hall,3.9,111," Nagar, Tirupattur, Vellore - 635601, Tirupattur",12.4950124,78.5678407
Banquet_Halls,Uma Elumalaiyan Kalyana Man..,3.8,98,"liyappa Nagar, Madras Bombay Trunk Road, Walajapet, Vellore - 632513",15.3166045,75.1437005
Banquet_Halls,JP Kalyana Mandapam,3.9,98,"ian Oil Petrol, Vellore - 632515, Opposite National Highway 4",12.9909382,79.2620294
Banquet_Halls,AGS Kalyana Mandapam,3.9,97,"48, Swamy Chetti Street, Tirupattur, Vellore - 635601, Near AGS Mall",12.4913221,78.5661904
Banquet_Halls,Agr Marriage Mahal,3.3,97,"hya Naga, Vellore, Sh4, Arcot, Arcot, Vilupuram Arcot Road, Vellore - 632521",13.04678,80.1941209
Banquet_Halls,VDS Mahal,4.1,97,"te Highway 4, Vilupuram Arcot Road, Timiri, Vellore - 632512",11.873304,79.3375674
Banquet_Halls,Sri Krishnaveni Mahal,3.6,97,"lajapet, Thenkadappanthangal, Vellore, Nh4, Arcot, Arcot, Madras Bombay Trunk Road, Thenkadapanthangal, Vellore - 632513",12.9137025,79.3960417
Banquet_Halls,Aranya Mahal,3.7,94,"311, Bangalore Chennai Highway, Perumugai, Vellore - 632009, Opposite Ford Car Show Room",12.9479654,79.2099985
Banquet_Halls,S S Mahal,3.5,94,"303, Arni Road, (Nh 234), Vellore, Kaniyambadi, Vellore - 632102",12.8135401,79.1334238
Banquet_Halls,Solai Function Hall,4,92,"216, Tnhb Phase-1, Sathuvachari, Sathuvacheri, Vellore - 632009",12.9334242,79.1634783
Banquet_Halls,India Medical Association H..,3.8,92," Katpadi, Gandhinagar West, 4th West Cross Road, Gandhi Nagar East, Vellore - 632006, Gandhi Nagar",12.9480814,79.1335467
Banquet_Halls,J. S Mahal,3.6,82," Rafi Nager, Vannivedu, Vellore - 632513, Ooratchi Nagara Building",12.9305753,79.3555684
Banquet_Halls,Ramamoorthy Mahal,3.7,82,"28, Shankar Nagar, Sholinghur, Sholingur, Vellore - 631102",13.1069332,79.4230531
Banquet_Halls,Grace Flowers,4,80,"4 SLN Plazza 1st East Main Road, Odai Pillaiyar Kovil, KATPADI VELLORE, Vellore - 632002, Gandhi Nagar",23.2156354,72.6369415
Banquet_Halls,Sri Dhanalakshi T Velu Kaly..,3.7,80,"54/A, Arni Road, Bagayam, Vellore - 632002, Virupatchipuram",12.8914402,79.1352293
Banquet_Halls,Bhuvaneswari Mahal,3.7,78,"13/11, SOUTH AVUNE ROAD, Sathuvacheri, Vellore - 632009, Near Court Phase 2, Near Gh",12.9339807,79.1572368
Banquet_Halls,KPS Thirumana Mandapam,3.9,78,"34 E, Ammoor Road, Ranipet Vellore, Vellore - 632509, Near Muthukadai Junction",12.9324618,79.3376806
Banquet_Halls,Sri Narayana Mahal Ac,4.3,77," NARAYANA MAHAL AC, Katpadi Road Chennarayanapalli, Gudiyattam Railway Station, Vellore - 635803, FRONT OF ARYA VIDHYSHRAM SCHOOL",12.9374566,78.916155
Banquet_Halls,Thangaraj Palace,4.3,77," SALAI, Walajapet, Vellore - 632513, Nera AAA COLLEGE",12.922198,79.376379
Banquet_Halls,Thangaraj Palace,4.3,75," Road, Walajapet, Vellore - 632513, Near Bt AAA A Colloge",12.9254169,79.3640845
Banquet_Halls,Zaibun Marriage Hal,3.4,75,"t Area, Tirupattur - 635601",12.5035105,78.5774408
Banquet_Halls,Goplaya kalyana mandapam,3.6,70,"dhi Nagar, Gudiyattam, Gandhi Nagar West, Vellore - 632006",12.9480047,79.1343914
Banquet_Halls,K K C Marriage Hall,3.8,70," Gandhi Road, Kudiyanakuppam, Vellore - 635851",12.567116,78.5721693
Banquet_Halls,Sakthi Mahalakshmi Mahal,3.7,68,"llinghur, Vellore Sh61, Arcot, Walajah Sholinghur Arakonam Road, Sholingur, Vellore - 631102",13.1115847,79.4310052
Banquet_Halls,Vijaya Saravana Mahal,4,68,"2, Tvk Salai, Thiruppattur Vellore, Vellore - 635601",12.4950124,78.5678407
Banquet_Halls,Yelagiri Hall,4,68,"10, Krishna Nagar, Vellore - 632001, Next to Darling Residency, Officers Line",12.9063952,79.1320345
Banquet_Halls,Naveen mahal kalyana mandap..,3.9,68,"lore Road, Odugathur, Vellore - 632103, Odugathur",12.768665,78.8818466
Banquet_Halls,Sri Lakshmi Ponnusamy Marri..,3.9,66,"65/2b, Katpadi Road, Raja Koil, Gudiyattam Railway Station, Vellore - 635803, Near Rajagopal Polytechnic College",12.9260193,79.13321
Banquet_Halls,Saravana Mahal,3.8,66," 358/c, Arcot Main Road, Rangapuram, Vellore - 632009, Opposite to Grand Krishna Hotel",12.9303904,79.1450792
Banquet_Halls,Meenakshi Kalyana Mandapam,3.9,65,"46, Phase 2, Sathuvachari, Sathuvacheri, Vellore - 632009",12.9336215,79.1593548
Banquet_Halls,Shree Ranjini Function Hall,4.5,65,"arajar Nagar,Sripuram, Main Road, Thorapadi, Vellore - 632002",12.8599271,79.0951094
Banquet_Halls,Sri Vari Mahal,3.9,58,"/A Sri Vari Complex Ocheri Vellore Dst, Chennai - Bengaluru Hwy, Ocheri, Vellore - 632531",12.8882095,78.9030459
Banquet_Halls,Saradambal Srinivasamudally..,3.9,58," 85, Officers Line, Krishna Nagar, Vellore - 632001",12.9002661,79.1312036
Banquet_Halls,Sri RPG Marriage Hall,3.7,57,"lore, Nh46, Poigai, Vellore - 632114",12.9143376,79.058856
Banquet_Halls,Kariya Chetty Chenniyammal ..,3.7,57,"chur, Natrampalli Tirupattur Kuppam Road, Pachur, Vellore - 635854, Kamatchiyamman Temple",12.5948969,78.4654798
Banquet_Halls,Gp Rani Mahal,3.5,55,"ajapet, Vellore - 632513",12.9254169,79.3640845
Banquet_Halls,Vaniga Vaisiya Mandapam,3.8,55,"i Chettystreet, Sripuram, Saidapet Vellore, Vellore - 632012",12.920389,79.1368918
Banquet_Halls,Srinivasa Kalyana Mandapam,3.8,55,"i Road, Bagayam, Vellore - 632002",10.4712041,79.5753025
Banquet_Halls,Sengunthar Thirumana Mandab..,4.1,55,"epet, Gudiyattam, Gudiyattam Railway Station, Vellore - 635803",12.9374566,78.916155
Banquet_Halls,Mmp Mini Mahal,3.8,55,"/1a, Ammoor Road, Manthangal, Walajapet, Vellore - 632513, Registor Office",12.9536457,79.3531781
Banquet_Halls,Mmp Mini Mahal,3.8,55,"ajapet, Vellore - 632513",12.9254169,79.3640845
Banquet_Halls,SRR Thirumana Mandapam,3.7,49,"lore Main Road, Ocheri, Vellore - 632531, Near On The Way to Sirukarumbur",10.4712041,79.5753025
Banquet_Halls,Raja Rani Mahal,3.6,49,"110/17, Narasinga Swamy Madam Street, Sullivananpet, Vellore - 632001, Opposite Dinakaran Theatre",12.9096907,79.1391784
Banquet_Halls,V.S.B.Mahal,3.4,49,"88, Vellore - 632104",12.9065199,79.0079949
Banquet_Halls,Janaki Mahal,3.4,49,"i Road, Bagayam, Vellore - 632002",10.4712041,79.5753025
Banquet_Halls,Thirumagal Kalyana Mandapam,3.4,48,"hanthira Ponvizha Nagar, Bharathi Nagar, 4th East Cross Road, Gandhi Nagar East, Vellore - 632006, Gandhi Nagar",12.9584229,79.1438338
Banquet_Halls,K.c. Mahal,4.1,48,"araj Nagar, Vellore - 632057",12.8468789,79.1407421
Banquet_Halls,Saradhambal Srinivasan Muda..,3.8,45,"24B, Officers Lane, Allias Anna Salai, Krishna Nagar, Vellore - 632001, Near Lakshmi Theatre",12.9047505,79.132032
Banquet_Halls,P N R Mahal,3.7,45,"appandal, Vellore - 632318",12.6738326,79.4141214
Banquet_Halls,Udayam Mahal,3.4,45," Mbt Road, Kaveripakkam, Vellore - 632508",12.9673954,77.5812077
Banquet_Halls,Y G Mahal,3.5,45,"haimedu.K.V.Kuppam, Vellore - 632201",12.9568469,78.9910352
Banquet_Halls,Kailasam Chinnakkani Mandab..,3.5,43,"a Nagar, Tirupattur Bazaar, Vellore - 635602, Near Govt. Primary School",12.4573994,78.5547283
Banquet_Halls,Kgn Mahal,3.4,43," Vasoor, Sathuvachari, Kanchipuram Vellore Road, Alamelumangapuram, Vellore - 632009, Alamelumangapuram",12.942224,79.1854767
Banquet_Halls,Sri Kamakshi Mahal,3.3,43,"thithangal, Vellore, Nh234, Katpadi Road, Vellore - 632201",9.4807463,77.8081363
Banquet_Halls,M S Mahal,3.7,43,"ruvalam, Vellore - 632515",12.9823036,79.2592105
Banquet_Halls,Varthaga Sangam Mahal,3.7,42,"i Chetty St, Kakankarai, Vellore - 635601",12.4917075,78.5692421
Banquet_Halls,VM Kuppu Swamy Marriage Hal..,3.3,42,"28, Kaveripakkam, Vellore - 632508",12.9052961,79.4619946
Banquet_Halls,S S Mini Hall,4.9,41,"galore to Chennai Highway, Poigai, Vellore - 632114, Near Upstairs Central Bank Of India",12.9162282,79.0537044
Banquet_Halls,Sri Udhaya Mahal,4,41,"maraipakkam, Thamaraipakkam, Vellore - 632504",12.7616585,79.3085283
Banquet_Halls,Arunachala Kalayana Mandapa..,3.9,41,"40, Azad Road, Bagayam, Vellore - 632002, Thorapadi",12.8915191,79.1238911
Banquet_Halls,Balaji Marriage Hall,3.7,41,"umbakkam, Kattalai Village, Vellore - 632508",12.9249392,79.4600234
Banquet_Halls,Subalakshmi Mahal,3.3,39," 76, Old No. 173, Phase1, Sathuvachari, South Avenue Road, Sathuvacheri, Vellore - 632009",12.9356692,79.1639032
Banquet_Halls,Selva Valarmathi Mahal,3.7,39,"/3, State Highway 131, Rayappan Nagar, Tirupattur, Vellore - 635601, Amirtha Higher Secondary School-Tirupattur",12.4846933,78.5491535
Banquet_Halls,Narayana Mandiri Valandiyam..,3.6,38," 11, Arcot Road , Arcot Road, Rangapuram, Vellore - 632009, Near Mangala Vinayagar Temple",12.9352937,79.1539494
Banquet_Halls,Msks Kalyana Mandapam,3.6,38,"langai Road, Ammoor, Vellore - 632501",12.9767298,79.3648596
Banquet_Halls,Rdm Thirumana Mahal,3.6,38,"11/5, Walaja Road, Sholingur, Vellore - 631102",13.1076877,79.4209165
Banquet_Halls,Sri Sundram Mahal,3.3,38,"riage Hall, Thiruvannamalai Main Road, Tirupattur, Vellore - 635601, Near Vengalapuram",12.2305457,79.078977
Banquet_Halls,P.M Mahal,4.4,38,"5/4 Vellore, To, Tamil Nadu, Arni Road, Sainathapuram Vlr, Vellore - 632001",12.8963277,79.1352724
Banquet_Halls,Vijayalakshmi Celebration H..,3.7,38,"Dharmalingam Street, Poonthotam, Velapadi, Vellore - 632001, Near Harris Gas Godown",12.904835,79.14057
Banquet_Halls,Surya Mahal,3.3,38,"eripakkam, Vellore - 632508",12.9024987,79.4591378
Banquet_Halls,AVS Kalyana Mandapam,4,38,"tty Street, Sholingur, Vellore - 631102",13.1115847,79.4310052
Banquet_Halls,Mks Mahal (Thirumana Mandap..,4.2,34," Mahal, Mittur, Vellore - 635710, Mittur Ricemill Bus Stop",12.5613536,78.7093556
Banquet_Halls,Yrtm Marriage Hall,3.7,34,"4, Virinchipuram Road, Vaduganthangal, Vellore - 632204",12.9244808,79.020564
Banquet_Halls,Ajanta Mahal,3.4,34,"hanthira Ponvizha Nagar, Gandhinagar West, Gandhi Nagar Vellore, Vellore - 632006",12.9480047,79.1343914
Banquet_Halls,Kannan Mahal,3.3,34,"26, Anna Salai, Officers Line, Vellore Ho, Vellore - 632001, Near Kanna  Hotel",12.9121343,79.1320789
Banquet_Halls,Susee Soundar Raja Nadar Ha..,3.6,34," 90, Nadar Complex, Arni Road, Bagayam, Vellore - 632002, Opposite to Janaki Mahal",12.8821159,79.1350871
Banquet_Halls,Sarojini Venkatesh Kalyana ..,3.4,34,"88, Paradarami, Vellore - 632603",13.0681312,78.9728903
Banquet_Halls,Pathmavathi Kalyana Mandapa..,3.9,34,"anur Road, Chinnamottur, Vellore - 635851",12.601856,78.5953192
Banquet_Halls,K M A Mahal,3.6,34,"garampattu Gate, Arani Taluk, Sh 132, Kammasamudram, Vellore - 632319",12.7568845,79.1618681
Banquet_Halls,Sri Shiva Shakthi Mahal,3,33,"ot Road, Vellore - 632009, Near Shwathi Medical",12.9367973,79.1887115
Banquet_Halls,Susila Ammal Vengatesa Mudh..,2.9,33," 8, Contractor Manikkam Mudaliar, Kosapet, Vellore - 632001, Near Dinakaran Delite Appartment",12.9136297,79.1322992
Banquet_Halls,Sri Aishwaryam Mahal,4.8,31," Aishwaryam Mahal, Mahathma Gandhi Street, Kaveripakkam, Vellore - 632508, Thirupparkadal Perumal Temple",12.885279,79.4456685
Banquet_Halls,Sri Vadamalai Thirumana Man..,3.3,31,"nnarampatti, Kurumberi Road, Perambattu, Vellore - 635652, Near Thiruvannamali Road",12.3877708,78.5998845
Banquet_Halls,Sarathy Marriage Hall,4.2,30,"icut, Vellore - 632101",12.8375388,78.9853813
Banquet_Halls,Chithra Mahal,3.5,30,"iyattajm Manin Road, Paradarami, Vellore - 632603, Near Guriji Matriculation School",13.061893,78.9702277
Banquet_Halls,S.A.Mahal,3.1,28," St, E.B. Road, Shenbakkam, Vellore - 632008, Near Rashi Tailor",12.929652,79.1195714
Banquet_Halls,Paras Mahal,3.8,28," Thiruvallam Road, Bharamanpuram Post,Thangal Village, KATPADI VELLORE, Vellore - 632002",12.9653375,79.151404
Banquet_Halls,Rk Thirumana Mahal,3.3,28,"rch Colony, Viruthampattu, Vellore, Tamil Nadu, Tk Road, Vellore - 632006",12.940234,79.1286105
Banquet_Halls,Vasantha Marriage Hall,3.3,28," Shollinghur, Vellore, Sh54, Arcot, Arcot, Chittoor Thiruthani Road, Sholingur, Vellore - 631102",13.1060636,79.4235225
Banquet_Halls,Rgs Thirumana Mandapam,3.7,28,"46, Phase 1, Sathuvachari, Sathuvacheri, Vellore - 632009",12.9336215,79.1593548
Banquet_Halls,SMS Mahal,3.6,28,"il Nadu, Kanchipuram Vellore Road, Thenkadapanthangal, Vellore - 632513",12.9141805,79.395152
Banquet_Halls,Sri Kesava Perumal Marriage..,3.3,26,"100/1, Vellore - 631102, Sumathi Theater Opp",13.1097646,79.4209368
Banquet_Halls,Adilakshmi Kalyana Mandapam,3.7,26,"hanthira Ponvizha Nagar, Gandhi Nagar, Gandhi Nagar West, Vellore - 632006",12.9480047,79.1343914
Banquet_Halls,Sournabaai Maargabandhu Mar..,3.9,25,"apalayam, Pazhayanur Main Road, Timiri, Vellore - 632512",12.829012,79.312427
Banquet_Halls,Subramani Sampurna Mahal,3.9,25," Natrampalli, Vellore - 635852",12.5915819,78.5125455
Banquet_Halls,Narayana Mahal,3.8,24,"G,G Colony, Tirupattur, Vellore - 635601",12.4950124,78.5678407
Banquet_Halls,Vasavi Kalyana Mandapam,3.3,24,"i Chettystreet, Sripuram, Saidapet, Saidapet, Vellore - 632002",12.920389,79.1368918
Banquet_Halls,RSJ Imran Mahal,3.2,24," Imran Mahal, Saduperi Main Road, Saduperi, Vellore - 632002, Near KH Exports Company",12.9029385,79.1145353
Banquet_Halls,Thai Sri Naga Thirumana Man..,3.2,24,"amangalam, Achamangalam, Tirupattur - 635651",12.5258567,78.5431926
Banquet_Halls,LKS Function Hall,4.5,24," Complex, Arni Road, Sainathapuram, Vellore - 632001, Near Krishnaswamy Higher Secondary School",12.8963277,79.1352724
Banquet_Halls,Vijaya Lakshmi Marriage Hal..,4.1,24,"46, Kaveripakkam, Vellore - 632508",12.9052961,79.4619946
Banquet_Halls,Jayakrishna Mahal,3.6,23,"darapalli, Vellore - 635854",12.5771576,78.4524591
Banquet_Halls,Sengunthar Thirumana Mandab..,3.2,23,"am Street, Nethaji Nagar, Sathuvachari, Sathuvacheri, Vellore - 632009",12.9391372,79.1597917
Banquet_Halls,Sri Narayana Marriage Hall,4.1,23,"4, Arcot, Paradarami Arcot, Vellore - 632512",12.795337,79.3176845
Banquet_Halls,Sulochana Arjunan Marriage ..,4,23,"apalli,Thirupathoor, Velakalnatham, Vellore - 635854, Opp Petrol Bunk",12.5771576,78.4524591
Banquet_Halls,N K Devaraj Gounder Mahal,3.9,21,"hukkupalli, Peddakallupalli, Vellore - 635801",12.6606737,78.5547283
Banquet_Halls,K.I.S. Marriage Function Ha..,3.9,21,"nnamadhar Sahebstreet, Tamil Nadu, Tirupattur, Tirupattur - 635601",12.5035105,78.5774408
Banquet_Halls,Jsr Kusturi Mahal,3.9,21,"nnakallupalli, Vellore - 635851",12.617426,78.6001482
Banquet_Halls,Tmt Mahal,3.7,21,"anipakkam, Thangam Nager, Vellore - 632101, Opp Saibaba Temple",13.2775912,79.035548
Banquet_Halls,Kavalar Thirumana Mandapam,3.2,21,"anthapuram, Fort Round Road, Kosapet, Vellore - 632001",12.9164296,79.1289061
Banquet_Halls,Sengunthar Thirumana Mandap..,4.2,21,"apandal, Vellore - 632318",12.6738326,79.4141214
Hospitals,Indira Super Speciality Hos..,4.1,306,"320 / 3A1, Chittoor Main Road,, Gandhi Nagar West, Vellore - 632006",12.96209,79.1372141
Hospitals,Manisundaram Medical Missio..,3.9,306,"288 Phase1, South Avenue Road, Vallalar, Sathuvacheri, Vellore - 632009, Near More Super Market",12.9352979,79.1623982
Hospitals,Mumme Hospital,4.2,147," Mumme Hospital,No 15/2, Masilamani Hostel Road, Vellore Ho, Vellore - 632001",12.908708,79.1303007
Hospitals,Mumme Hospital,4.2,147," No 15/2 New No 28, Masilamani Hostel Road, Krishna Nagar, Vellore - 632001",12.908708,79.1303007
Hospitals,Sri Narayani Hospital and R..,3.8,31,"ayani Hospital and Research Centre, Ariyur Vellore, Vellore - 632055, Near Golden Temple, Sripuram Thirumalakodi",12.8757375,79.1019256
Hospitals,Dhanya Medical Centre,4,31,"19, Pillaiyar Koil Street, Velappadi, Vellore - 632001",12.9040895,79.1364354
Hospitals,Vellore Speciality Centre,4.1,31," 1315, South Avenue Road, Sathuvacheri, Vellore - 632009, Near By Vellore District Court Behine Avin Milk Dairy",12.9360758,79.1586493
Hospitals,Nithya Sugam Ayurvedic Hosp..,4.5,31,"hya Sugam Vaithiya Salai, No. 7 Nethaji Garden, Ammoor Koot Road, Ammoor,, Ammoor, Vellore - 632501, Ammoor Koot Road CSI Church Nearby",12.9610915,79.3598676
Hospitals,Indira Nursing Home,4.1,565,"452, Main Bazzar Road Saidapet, Vellore - 632001, Near CMC Hospital",12.9244714,79.1401712
Hospitals,Nalam Medical Centre and Ho..,4.1,565,", A, Arcot Road, Sathuvacheri, Vellore - 632009, Near Collectorate",12.9400062,79.1731692
Hospitals,Nithya Sugam Ayurvedic Hosp..,4.5,2,"hya Sugam Vaithiya Salai, No. 7 Nethaji Garden, Ammoor Koot Road, Ammoor,, Ammoor, Vellore - 632501, Ammoor Koot Road CSI Church Nearby",12.9610915,79.3598676
Hospitals,Usha Nursing Home,3.8,2,"85, Filter Bed Road, Krishna Nagar, Vellore - 632001, Near Vellore Silk House & BPR Nursing College, Vellore Bazaar",12.9162608,79.1353853
Hospitals,Sri Narayani Hospital And R..,4.1,39,"puram, Thirumalaikodi, Ariyur, Vellore - 632002, Near Golden Temple,",12.8741262,79.0882581
Hospitals,Aruna Eye Hospital,3.9,39,"19/1, Officers Line, Voorhees College, Vellore - 632001, Near Apsara Cinema",12.9122691,79.1319428
Hospitals,Sri Sakthi Amma Hospital,3.9,1469,"14/87, Housing Board Phase-1, 7th Cross, Sathuvacheri, Vellore - 632009, Near Vallalar Nagar",12.9369761,79.1691971
Hospitals,Gaurav Homeopathic Clinic,4.2,1469,"p No 2, New Bus Stand Street, Kalanaur Rohtak, Rohtak - 124113, Near New Bus Stand",28.8255378,76.3907304
Hospitals,Theneerajwellness.com,4.4,46,"e No. 40, Sheesham Jhari,, Sewanand Ashram Rd,, Rishikesh City, Rishikesh - 249201, Muni Ki Reti,",30.1198583,78.3031333
Hospitals,Christian Medical College H..,4.4,46," Scudder Road, Vellore Bazaar, Vellore - 632004, Near Fort",12.9240595,79.1358801
Hospitals,Dr. Mohans Diabetes Special..,4.7,67,"13, 7th East Main Road, Gandhi Nagar Vellore, Vellore - 632006, Gandhi Nagar",12.9571929,79.1419542
Hospitals,Christian Medical Hospital,4.3,67," Building Main Block, IDA Scudder Road, Cmc, Vellore - 632004, Opposite State Bank Of India",12.9244456,79.1352765
Hospitals,ARC Fertility Hospitals,4.8,1290,"102/283, Katpadi Road, Thottapalayam, Vellore - 632012, Opposite New Bus Stand & Next to Hotel Saravana Bhavan, Vivekanandar Nagar",12.9333742,79.1386872
Hospitals,Dr. Agarwals Eye Hospital,4.5,1290,"18, Officers Lane, Voorhees College, Vellore - 632001, Near Apsara Theatre",12.9108602,79.1320307
Hospitals,Apollo K H Hospital,4.2,1033,"ipet to Vellore By Pass Road, Melvishram Vellore, Vellore - 632509, Near Melvishram",12.9105182,79.2969004
Hospitals,Naruvi Hospitals,4.3,1033,"72, Collectors Office Road, Chennai Bengaluru Highway, Vellore Collectorate, Vellore - 632004",12.9344377,79.1490671
Hospitals,Nalam Medical Centre And Ho..,4.1,635,"44,, Arcot Road, Sathuvacheri, Vellore - 632009, Near Collectorate",12.9370093,79.1547541
Hospitals,Christian Medical Hospital,4.1,635,"n Road, Bagayam, Vellore - 632002, Opposite State Bank Of India",12.879623,79.1312174
Hospitals,Sri Saai Ideal Dental Care,4.8,565,"illium College Road,, Gandhi Nagar Vellore, Vellore - 632002, Near Apollo Pharmacy",12.9550558,79.1416876
Hospitals,Vasan Eye Care Hospital,4.2,565,"30/1, Officers Line, Krishna Nagar, Vellore - 632001, Near Khanna Hotel",12.8992924,79.1310216
Hospitals,Vellore Homeo Care,4.8,410,"29/108, Najam Centre, Virudhambattu, Vellore - 632006, Near Vishnu Theatre",12.9435891,79.1351285
Hospitals,Sandhya Hospital,3.7,410,"565, 16th Street, Sathuvacheri, Vellore - 632009, Opposite Vallalar Tank",12.9321804,79.1546746
Hospitals,Vellore Government Hospital,4.1,231,"i Road, Adukkamparai, Vellore - 632011, Near Bagayam",10.4712041,79.5753025
Hospitals,Dr. Sivakumar Multi Special..,3.6,231,"3, Arcot Road, Sathuvacheri, Vellore - 632009, Opposite Collector Office",12.939306,79.1708766
Hospitals,Hospital Annexe & Ywca Cant..,3.7,135,"ttapalayam, Vellore - 632012",12.9317208,79.135097
Hospitals,Indira Nursing Home,3.6,135,"452, Main Bazaar Road, Saidapet, Vellore - 632012, Near CMC Hospital",12.9244714,79.1401712
Hospitals,Raj Nursing Home,4.3,132,"5, Ponniamman Kovil Street, Sainathapuram, Vellore - 632001, Near EB Office",12.89578,79.1356924
Hospitals,Raj Nursing Home,4.3,132,"5, Ponniamman Koil Street, Sainathapuram, Vellore - 632001",12.89578,79.1356924
Hospitals,Mental Health Centre,4.4,130,"ayam, Vellore - 632002, Near Bagayam Police Station, Old Bus Stand",12.8752635,79.1337692
Hospitals,Dr. Tirupathi Veterinary Ho..,4.1,130,"upatturalangayamvellore Road, Tirupattur, Vellore - 635601",12.9165167,79.1324986
Hospitals,Kumaran Hospital,3.5,124,"112, Katpadi Road, Virudhampet, Vellore - 632002, Near Gandhi Nagar",12.9259209,79.1332681
Hospitals,Indira Superspeciality Hosp..,3.8,124," Suthanthira Ponvizha Nagar, Gandhi Nagar, Vellore, Katpadi Road, Gandhi Nagar East, Vellore - 632006",12.947547,79.1414652
Hospitals,Varshini Hospital,3.3,87,"78, ARNI ROAD, Velapadi, Vellore - 632001, NEAR SP BUNGLAOW",12.9059978,79.1355454
Hospitals,CMC Hospital,4.2,87,"ot Road, Thottapalayam, Vellore - 632012, Near CMC Hospitals",12.9254684,79.1371366
Hospitals,Vellore Hospital,4.2,85,"207, Krishna Nagar, Vellore - 632001, Sasthri Nagar, Veerasamy Nagar",12.9011395,79.1329801
Hospitals,Dr. Sivakumar Hospital,4,85,"huvacheri, Vellore - 632009, Sathuvacheri",12.9422134,79.1860302
Hospitals,Dr. Sivakumar Hospital,4,83,", Arcot Road, Sathuvacheri, Vellore - 632009, Opp To Collector Office",12.9347273,79.1516279
Hospitals,Premji Neuro Hospital,3.8,83,"tteri  Main Road, Thorapadi, Vellore - 632002, Opposite EB Office Near Female Jail",10.4712041,79.5753025
Hospitals,Sankari Hospital,3.3,78,"32, Government Pentland Hospital Road, Krishna Nagar, Vellore - 632001",12.9154528,79.1342036
Hospitals,Jamia Darussalam Hospital,4,78,"198/25, Oomerabad Main Road, Oomerabad, Vellore - 635808, Near Airtel Tower",12.8420657,78.7100643
Hospitals,Government Hospital Tirupat..,3.8,78,lore - 632001,12.8954355,79.149209
Hospitals,CMC Vellore Eye Hospital,3.9,78,"ell Campus, Arni Road, Velapadi, Vellore - 632001",12.8422225,79.1341166
Hospitals,Dhinesh Hospital,3.7,63,"73, Arani Road, Velapadi, Vellore - 632001, Near Dhinakaran Bus Stop",12.9056475,79.1353852
Hospitals,Esi Hospital,3.7,63,"ernment Pentland Hospital Campus, Gph Road, Krishna Nagar, Vellore - 632001, Near Raja Bus Stop",12.8965944,79.133893
Hospitals,Addon Institute Of Medical ..,4.9,62,"nnai to Bangalore Highway Road, Pallikonda, Vellore - 635809, Near Toll Plaza",12.9043057,78.9411778
Hospitals,Dhinesh Nursing Home,4.2,62,"234, Arni Road,Edayansathu, Bagayam, Vellore - 632002, Near Bagayam Police Station",12.822913,79.1329225
Hospitals,Akshaya Hospital,4,61,"1, 4th Street, KATPADI VELLORE, Vellore - 632002, Near Gopalapuram",12.9612999,79.14953
Hospitals,Annamalai Hospital,4.4,61,"46, Subbaraya Mudali Street, Velapadi, Vellore - 632001, Near Velapadi",12.9030716,79.1417746
Hospitals,Kottakkal Arya Vaidyasala,4.2,59,"13/4, Arni Road, Kosapet, Vellore - 632001, Near CMC Eye Hospital",12.9056941,79.1358341
Hospitals,"Hospital Annexe, Cmc",3.9,59,"lore, Tamil Nadu, Natham, Vellore - 635654",12.4110013,78.4714712
Hospitals,Baba Hospital,3.2,59,"1311 A, Phase 2 South Avenue Road,, Sathuvacheri, Vellore - 632009, Near Bhuvaneswari Mahal, Behind Aavin Milk & District Court",12.934129,79.1571682
Hospitals,Sundaram Health Centre,4.1,59,"34, Banavaram Road, Sholingur, Vellore - 631102, Near Yoga Narasimma Temple",13.0624009,79.5075161
Hospitals,Dr. Kalyani Gajendran Hospi..,3.4,47,"18, Cutchery Street, Tirupattur, Tirupattur - 635601, Near Arignar Anna School",12.493074,78.5680272
Hospitals,Aruna Eye Hospital,3.9,47,"19/1, Officers Line, Voorhees College, Vellore - 632001, Near Apsara Theatre",12.9122691,79.1319428
Hospitals,Sudhagar Dental Hospital,4.4,46,"14 1st Floor, GPH Road, Vellore Ho, Vellore - 632001, Opposite Old Government Hospital",10.4712041,79.5753025
Hospitals,Thangamma Dental Hospital,3,46,"656, Kovil Street, Tirupattur, Vellore - 635601, Vallalar Nagar",12.5088276,78.570299
Hospitals,Mothers Care Diabetes Cente..,4.3,43," 9 Phase 1, Sathuvacheri, Vellore - 632009, Opposite Gandhi Nagar Tunnel Bus Stop,Gandhinagar Nagar",12.9309321,79.1543269
Hospitals,Karigiri Hospital (Sih-R&Lc..,4.1,43,"igiri, Vellore - 632106, Near Sevur",12.9649395,79.1830693
Hospitals,V Care Hospital,4,38,"anthapuram, Kosapet, Vellore - 632001",12.9136297,79.1322992
Hospitals,Sai Rishi Siddha & Ayurvedi..,4.5,38,"31, Bazaar Street, MBT Road, Walajapet, Vellore - 632513, Near Mosque",12.9052159,79.3242574
Hospitals,The Vellore Ortho Ent Found..,3.8,34,"220, South Service Road Phase I, Sathuvacheri, Vellore - 632009, Vallalar, Near More Supermarket",12.9422134,79.1860302
Hospitals,Dr. J. Supriya Clinic,3.2,34,"6, Battai St, Velapadi, Vellore - 632001",12.9042364,79.1353285
Hospitals,Anand Hospitals,4.7,29,"nd Hospitals, No,1/16, Pallikonda to Gudiyattam Main Road, Veppur, Vellore - 635803, Veppur Bus Stop, Mint",12.9125489,78.9399725
Hospitals,Cure Medical Institute Of E..,4.5,29,"nagiri Kilminnal, Vellore - 632517",12.9402848,79.2379294
Hospitals,Dr. Ganesh Hospital,4.3,28," St, Walajapet, Vellore - 632513",12.9254169,79.3640845
Hospitals,Schell Eye Hospital,4,28,"ell Campus, Arani Road, Krishna Nagar, Vellore - 632001, Near Raymond Showroom",12.8992625,79.1351069
Hospitals,Sairam Healthcare and Nursi..,4.8,28,"13/1, AKR Towers, Arcot Road, Ranipet, Vellore - 632509, Near Sundaram Finance and Andhra Bank",13.04678,80.1941209
Hospitals,Naruvi Hospital,3.7,28,"m Garden, Elim Garden, Plot #605, Jeevaraj Garden, Plot #605, Jeevaraj Garden, Samuel Nagar, Thot, Palar Thottam Street, Kalathur, Vellore - 632531, Opposite Vellore New Bus Stand",12.870246,79.5392686
Hospitals,Arun Ortho Hospital,3.9,27,"15, Velapadi, Vellore - 632001, Near Annamalai University",12.9030716,79.1417746
Hospitals,RM Hospital,3.9,27,"286/176, Vellore - Chittoor Road, Dharapadavedu, Katpadi, Vellore - 632007, Near Chitoor Bus Stand, Opposite Thirumalai Parking",12.9677638,79.137265
Hospitals,Sri Sesha Sai Herbals,3,26,"45, Vellore Banglore National Highway, Abdullapuram, Vellore - 632010, Near Sri Shesha Sai Nagna Aarogya Beedam, VIP City",12.9071984,79.0859835
Hospitals,Jeevan Life Care Hospital,4.8,26,"19, Bazaar Street, Tiruvalam, Vellore - 632515, Sipcot near",12.9912069,79.3042802
Hospitals,Ramachandra Hospital,3.2,18,"284, Arani Road, Sainathapuram, Vellore - 632001, R N Nagar",12.8895471,79.1357816
Hospitals,Dentistree International De..,4.4,18,"82, 1st Floor, Balaji Road Officers Lane, Krishna Nagar, Vellore - 632001, Above Krishna Sweets",12.9001057,79.1310718
Hospitals,Karigari General Hospital,3.6,17,"42, Katpadi Road, KATPADI VELLORE, Vellore - 632002, Near Food Corporation India",12.951457,79.1371048
Hospitals,Aayurdhaa Hospital  (Prev. ..,4.3,17,"urdhaa Hospital, Naraikula Medu Street, Pandianallore Road, Sholingur, Vellore - 631102, Near Yoga Narashimma Swamy Temple",13.1159332,79.424295
Hospitals,Dinesh Hospital,4.5,17,"anchathur, Arani Road, Bagayam, Vellore - 632002, Near Bagayam Police Station",12.8752635,79.1337692
Hospitals,Chest Pain Unit,4.3,17,"ttapalayam, Vellore - 632012, CMC Hospital",12.9254684,79.1371366
Hospitals,V B Hospitals,3.6,16,"672, R T O Road, Sathuvacheri, Vellore - 632009, Near Sathuvachari",12.9351723,79.1561176
Hospitals,Lakshmi Prasad Hospital,3.6,16," , 49, Nagarathpete, Mbt Road, Walajapet, Vellore - 632513",12.9673954,77.5812077
Hospitals,Siva Nursing Home,3.6,15,"9/75, Vks Mani Street , Edaiyampatti, Kudiyanakuppam, Vellore - 635851",12.563005,78.5742471
Hospitals,Guruvarajapet Government Ho..,3.4,15,", Guruvarajapet, Vellore - 631101",13.1166589,79.5722845
Hospitals,Vasu Dental Care,4.8,14,"508C, Chennai Highway, Rangapuram, Vellore - 632009, Near Munishwaran Temple, Vallalar",13.0762874,80.202777
Hospitals,Accident & Emergency,4,14,"dhi Road, Thottapalayam, Vellore - 632012",12.9317208,79.135097
Hospitals,Shifa Unani Herbal Hospital,5,14,"co Nagar, Achamangalam, Tirupattur, Vellore - 635601",12.5119313,78.555846
Hospitals,Jothi Hospital,4.6,14,"69/1, Battai Street, Vellore Ho, Vellore - 632001, Near Bus Stand",12.9056964,79.1359239
Hospitals,Vds Dental & Implant Centre..,4.6,13," DENTAL CENTRE, MP Sarathy Nagar, Khaghithapattari, Vellore - 632002, Near Uzhyavar Market",12.9338702,79.1483271
Hospitals,Nambikkai Nilayam For Child..,4.2,13,"lore Bazaar, Vellore - 632002, Bagayam",12.879623,79.1312174
Hospitals,Government Hospital,4,13,"lore - 635854, Patchur",12.5937918,78.4616959
Hospitals,Balvissh Hospital,4.6,13,"7/1 New 3 Dr Gopal Hospital Building, Nethaji Roadrth Agraharam Street, Tirupattur, Tirupattur - 635601, Near Canara Bank",12.4917877,78.5646331
Hospitals,Ida Sophia Scudder Urban He..,4.4,13,"9, Vellore, Kosapet, Kosapet, Vellore - 632001",12.9136297,79.1322992
Hospitals,Tamilnadu Electropathy Medi..,4.2,13,"20, Muthamizh Nagar, Arappakkam, Vellore - 632517",13.1356775,80.24724
Hospitals,J J Ravi Hospital,4,12,"ni Main Road, Vellore Ho, Vellore - 632001, Near Blue Theatre Kuppam Bus Stop",12.8954355,79.149209
Hospitals,Government Pentland Hospita..,3.5,12," Road, Kosapet, Vellore - 632001",12.9136297,79.1322992
Hospitals,G S Hospital,3.8,12,"45/30, Tirupattur Bazaar, Vellore - 635602",12.4741545,78.5756845
Hospitals,Anand Kardiac Center Multi ..,3.6,12,"2/21 South Service Road, Phash 1 ,, Sathuvacheri, Vellore - 632009, Near Vallalar Bus Stop",12.9422134,79.1860302
Hospitals,Shrishti Hospital,2.7,11,"nivedu, Vellore - 632513",12.9296204,79.3517755
Hospitals,Sholinghur Government Hospi..,4.4,11,"ional Highway 45, Sholingur, Vellore - 631102, Near Narasimha Swamy Temple, Walajapet",22.1133622,82.0685105
Hospitals,Herbocare Hospital,3.8,11,"13, Bharathi Nagar Main Road, Gandhi Nagar East, Vellore - 632006, Near Oda Pillayar Kovil & Amma Unavagam",12.9566635,79.1209829
Hospitals,Rusha Department (Unit Of C..,3.7,11,"ha Campus, Gudiyanatham Road, Ruhsa Campus, Vellore - 632209, P K Puram",12.9517287,78.9705599
Hospitals,Sree Vaari Institute& Hospi..,3.4,11,"anpettu, Tirupattur, Tirupattur - 635601",12.5035105,78.5774408
Hospitals,S K Nambi Hospital,4.4,11,"9, Velapadi, Vellore - 632001",12.9030716,79.1417746
Hospitals,Vimala Eye Hospital,4.4,9,"upattur, Bharathi Road, Tirupattur Bazaar, Vellore - 635602",12.4907142,78.5700304
Hospitals,Natrampalli Primary Health ..,4.3,9,"rampalli, Natrampalli, Vellore - 635852",12.5915819,78.5125455
Hospitals,Lakshmi Hospital,4.1,9,"7, Pillaiyar Koil Street, Katpadi, Vellore - 632007, Dharapadavedu",12.950523,79.1312307
Hospitals,Lakshmi Hospital,3.8,9,"7/8 Pillaiyar Kovil Street, Tharapadavedu, Krishna Nagar, Vellore - 632001, Near Kaatpadi Railway Station",12.9504728,79.1312259
Hospitals,G.S Hospital,3.8,9," Dharmaraja Templestreet, Tirupattur, Tirupattur - 635601, Tirupattur",12.4946797,78.569074
Hospitals,Andiyappanur Phc,3.5,9,"122, Vellore - 635702",12.5092912,78.713608
Hospitals,Sri Guru Hospital,3.4,9,"36, Lalsingh Kumanathan Street, Vellore - 632001, Near Kosapet",12.914418,79.1359002
Hospitals,Success Varma Therapy Hospi..,3.3,9,"4, Big Mosque Ceepustreet, Melvisharam, Vellore - 632509",12.919785,79.275701
Hospitals,Employees State Insurance C..,3.2,9,"lore Bazaar, Vellore - 632004",12.9258108,79.1294516
Hospitals,The Dental Home,4.6,9,"thagiri Complex, 1st Floor , Katpadi Main Road, Gandhi Nagar West, Vellore - 632006, Opposite Reliance Petrol Bunk",12.9479691,79.1370795
Hospitals,Sterling Diabetics Hospital..,4.5,8," 6, 13th  East Main Road, KATPADI VELLORE, Vellore - 632002, Near Auxiliyam Womens College, Gandhi Nagar",12.957841,79.143326
Hospitals,Nmsi Christukula Ashram Hos..,4.4,8,"upet Road, Pudupettai, Vellore - 635651, Near Achamangalam",12.5324955,78.5100644
Hospitals,Gss Hospital,4.2,8,"24/25 Gss Complex, Kazhinjur Road, Katpadi,, Gandhi Nagar West, Vellore - 632006, Near 6th Cross Street",12.9452825,79.1368013
Hospitals,G S Hospital,4.1,8,"linghur, Vellore - 631102",13.0888397,79.4310052
Hospitals,E.S.I. Dispensar,3.9,8,"t No.68, Sipcot Industrial Complex, Ranipet-632 403, Sipcot, Vellore - 632403",12.9487403,79.318978
Hospitals,Sundaram Hospital Thirupatt..,3.9,8,"87, Cutchery Street, Thiruppattur Vellore, Vellore - 635601",12.4921481,78.5677541
Hospitals,KKR Hospitals,3.6,8,"22/1, Battai Street, Krishna Nagar, Vellore - 632001",12.9054297,79.1358718
Hospitals,J J Ravi Hospital,3,8,"upatchipuram, Rv Nagar, Vellore, Vellore - 632002",12.89444,79.1355012
Hospitals,Dr. Ramarathinam G,5,8,"29 Battai Street.Velapadi,Vellore, Velapadi, Vellore - 632001, Near Velapadi Pillayar Koil",12.9043059,79.1357527
Hospitals,Sakthi Balaji Clinic & Nurs..,4.9,8,"4 Lakshmi Complex, Kumaraswamy 2nd Street, Vellore Ho, Vellore - 632001, Periya Allapuram, Murugan Temple Backside",12.8948519,79.1244144
Hospitals,Akshaya Hospital,4.7,7,", Suthanthira Ponvizha Nagar, Mottur, Vellore, Katpadi Road, Katpadi, Vellore - 632002, Gandhi Nagar",12.9542849,79.1371548
Hospitals,Jeevan Lifecare Hospital,4.7,7," 33, Sholinghur Road, Walajapet, Vellore - 632513, Near Post Office,Walajapet",12.9254169,79.3640845
Hospitals,Government Hospital,4.6,7,"ajapet, Vellore - 632513",12.9254169,79.3640845
Hospitals,J P K M School Of Nursing &..,4.6,7," Annai Therasa 4thstreet, Phase 3, Sathuvachari, Sathuvacheri, Vellore - 632009",12.9396825,79.1620137
Hospitals,Cmc A Ward,4.5,7,"lore, Vellore HO, Vellore - 632001",12.8954355,79.149209
Hospitals,Casualty Block,4.4,7,"thalipuram, Adukkamparai, Munjurpattu, Vellore - 632057",12.8465615,79.1386203
Hospitals,Urban Primary Health Centre,4.3,7,"lore-Katpadi Road, Darapadavedu, Damarapakkam, Vellore - 632504",12.969163,79.1372433
Hospitals,Esic Vellore Branch,4.2,7," Cross Street, Sainathapuram, Vellore - 632001, Sasthri Nagar, Vadivel Nagar",12.8993114,79.1337739
Hospitals,Government Pentaland Hospit..,4.1,7,"lore Bazaar, Vellore - 632004",12.9258108,79.1294516
Hospitals,Thimiri Upgraded Government..,4,7,"ari, Vellore - 632512",12.8043862,79.2789407
Hospitals,Govt. Primary Health Center..,4,7,"niya Kotti St, Rv Nagar, Vellore, Sainathapuram, Sainathapuram, Vellore - 632001",12.8969742,79.1371724
Hospitals,Gv Annai Multispeciality Ho..,3.9,7,"i Road, Vellore Melpadi, Vellore - 632521",13.0632463,79.2806005
Hospitals,V M G Hospital,3.6,7,"iriyar Nagar, Vellore - 632001",12.8954355,79.149209
Hospitals,Ds Hospital-Multispeciality..,3.6,7," 13A, Sanjeevi Street, Tirupattur, Tirupattur - 635601, Near Meenakshi Theatre",12.5035105,78.5774408
Hospitals,Jj Ravi Hospital,3.4,7," Stop, Kuppam, Sainathapuram, Rv Nagar, Sainathapuram, Vellore - 632001",12.89686,79.1378612
Hospitals,Melvisharam Primary Health ..,2.8,7,", Annasalai Main Road, Vellore - 632509, Melvisharam",12.9170943,79.2783481
Hospitals,Kavitha Institute Of Parame..,4.7,7,"16, Perumal Mudali Street, Walajapet, Vellore - 632513, Near CNR School",12.9241279,79.3637794
Hospitals,Dhanwantari Hospital & Rese..,4.5,7,"21, Sathuvachari, Rto Road, Sathuvacheri, Vellore - 632009, Opposite Mgr Statue",12.9327125,79.1566161
Hospitals,Government Primary Health C..,4.3,7,"upattu, Vellore - 632508",12.9024987,79.4591378
Hospitals,Sri Agathiyar Siddha And Va..,4.2,7,"nnai Bangalore Road, Walajapet, Vellore - 632513, Near Dakshinakali Koil",12.9254169,79.3640845
Hospitals,Vasan Dental Clinic,4.1,6,"73/a, Katpadi Main Road, Gandhi Nagar East, Vellore - 632006, Near Rangalaya Mandabam",12.9257499,79.1332732
Hospitals,Kunichi Govt.Hospital,4.1,6,"araj Nagar, Nariyaneri, Nariyaneri, Vellore - 635901",12.4869495,78.4937486
Hospitals,Bagayam Hospital,3.3,6,"jeevipuram 1st Cross, Bagayam, Vellore - 632002",12.8834121,79.1344819
Hospitals,Jp Acupuncture Clinic & Res..,3.3,6,"3, Vellore Main Road, Virudhambattu, Vellore - 632006, Near Old Palar Bridge,  Balu Nagar West",12.9386843,79.1383769
Hospitals,Ramakrishna Hospital Ambula..,3.3,6,"19 T 1st Floor, Mandy Street, Vellore Ho, Vellore - 632001, Near Traffic Police Station",12.8954355,79.149209
Hospitals,Jolarpet Phc,3.3,6,"iyur, Sh18 Salemtirupatturvaniyambadi Road, Vellore - 635851",12.5897899,78.5906718
Hospitals,V P Hospital,2.7,6,"22 & 23, Gph Road, Vellore - 632001, Krishna Nagar, Vellore - 632001, Opposite to  Esi Hospital",12.8965944,79.133893
Hospitals,Dr. G Kumaran Ayurvedic Hos..,2.7,6,"221, Ammoor, Vellore - 632501",12.9767298,79.3648596
Hospitals,Anush Hospital,4.8,6,"o:1/2, Barathi Nagar, Vellore - 632114",12.96363,79.1373699
Hospitals,Ganesh Hospital,4.6,6,"43, Madras Banglore Truck Road, Walajapet, Vellore - 632513, Opposite Chennai Bus Stop",13.0826802,80.2707184
Hospitals,Guruji Venkatchandar,4.6,5,"asingapuram, Vellore - 635701",12.6251644,78.7816219
Hospitals,Gbr Fertiltiy Centre & Hosp..,4.6,5,"/1, Vks Tower, Chairman, Duraiswamy Road, Tirupattur Bazaar, Vellore - 635602",12.4861084,78.5616516
Hospitals,Nikkin Hospital,4.3,5,"25, Venkata Reddy Street, Jolarpettai, Vellore - 635851",12.566559,78.5861124
Hospitals,Urban Primary Health Center,4,5,"an), Vellore Corporation, 39thstreet , Phase Ii, Sathuvachari, Regional Transport Office Road, Sathuvacheri, Vellore - 632009",12.9327125,79.1566161
Hospitals,Sri Vaari Hospital,4,5,"ili, Sendamangalam, Vellore - 631051",12.9873842,79.6777084
Hospitals,ESI Dispensary,3.6,5,"t Road, Vellore Bazaar, Vellore - 632004",12.9162201,79.1334919
Hospitals,Om Sakthi Hospital,5,5,"alathur, Vellore - 635803",12.9470704,78.8948741
Hospitals,Gentle Homeo Care Homeopath..,4.5,5,"hukovil, Bedhakallupalli, Vaniyambadi, Avarangkuppam Road, Avarankuppam, Vellore - 635801",12.6813135,78.5337857
Hospitals,RJR Herbal Hospital,4.4,5,"11,Behind Chennai Silks, Sarathi Nagar, Kagithapattarai, Vellore - 632012",12.9292437,79.1440507
Hospitals,Kkr Hospital,4.3,5,"lore Bazaar, Vellore - 632004",12.9258108,79.1294516
Hospitals,Vellore Diabetes And ENT Ca..,4,4,"1, Arcot Road, Vellore Ho, Vellore - 632001, Near Rangapuram",12.92361,79.13403
Hospitals,Government Primary Health C..,3.6,4,"pital Road, Tiruvalam, Vellore - 632515, Ponnai",12.9739017,79.2649818
Hospitals,Dr. Himayavaramban Neuro Cl..,3.6,4,"37A, Arni Road, Sainathapuram, Vellore - 632001, Near Sainathapuram Bus Stop",12.9043027,79.1358043
Hospitals,Puttur Hospital,3.5,4,"15, O M Street, Thiruppattur Vellore, Vellore - 635601",12.4950124,78.5678407
Hospitals,Sri Jeya Hospital,3.5,4,"4, Dharmapuri Road, Tirupattur, Vellore - 635601, Opposite TNHB Phase II, Mukundan Nagar",12.4834592,78.5567677
Hospitals,Sanjeevani Ayurveda Hospita..,3.4,4,"2/1, Thinagar Salai ,Dr.gopalakrishnan Nagar, Katpadi Vellore, Vellore - 632002, Near Odai Pillaiyar Bus Stop",12.9734246,79.1369301
Hospitals,D S Hospital,3.3,4,", Sanjeevi Pillai Street, Tirupattur, Vellore - 635601, Near Meenakshi Theatre",12.4950124,78.5678407
Hospitals,Government Upgraded Primary..,2.9,4,"ngayam, Vellore - 635701",12.6251644,78.7816219
Hospitals,G K Hospital,2.7,4,"6 7 & 8 Sipcot Housing Colony, Sipcot, Vellore - 632403",12.9850996,79.2884412
Hospitals,In-yang Acupuncture Hospita..,5,4,"Yang Acupuncture Hospital, No. 1, Sindhu Garden, Gandhi Nagar, KATPADI VELLORE, Vellore - 632002, Opposite Manidhaneya Koodam",12.9546804,79.1364502
Hospitals,Jpkm Hospital,5,3,"46, Abdullah Puram, Abdullapuram, Vellore - 632010, Near Pallavan College",12.915376,79.079748
Hospitals,Akila Dental Clinic,5,3," Cross Street, Gandhi Nagar West, Vellore - 632006, Opp to Govt Law College",12.9480047,79.1343914
Hospitals,G S Hospital,5,3,"14, Post Office Street, Sholingur, Vellore - 631102, Near Lm Gandhi Statue West Opposite Applo Pharmacy",13.1150616,79.4191671
Hospitals,Bsh Hospital,5,3,"12, Ocheri Road, Panapakkam, Vellore - 631052, Near Mayura Theatre",12.8960512,79.5095488
Hospitals,Vijaya Hospital,4.7,3,"/1, Rajiv Nagar, Rajiv Gandhi Nagar, Vellore - 632002, Athani Road",12.8942712,79.1298045
Hospitals,Kavitha Hospital,4.3,3,"44, Sholingar Road, Walajapet, Vellore - 632513, Opposite Post Office",13.0843073,79.6630064
Hospitals,Vellore Siddha Ayurveda Mar..,4.3,3,"3, Infantry Road, Vellore - 632001, Near District Library",12.9123122,79.1308493
Hospitals,First Step Home Health Care..,4.3,3,"169 D, Sundararaju Street, Vellore Ho, Vellore - 632001",12.8954355,79.149209
Hospitals,Ganesh Hospital,4.3,3,"21, Arcot Road, Vellore Ho, Vellore - 632001, Ranga Puram",12.9237536,79.133807
Hospitals,Sanjeevan Ayurveda Varma Ho..,4,3,"21, Arcot Salai, Sathuvacheri, Vellore - 632009, Near PATC Bus Depot, Rangapuram",12.9352973,79.1539625
Cars,Ganesh Cars Pvt Ltd,4.2,2335,"32, New Bye Pass Road, Vellore Ho, Vellore - 632001, Near Green Circle",12.9282248,79.1271328
Cars,Sri Amman Cars INDIA Pvt Lt..,4,2335,"67, Katpadi Main Road, Gandhi Nagar Vellore, Vellore - 632006, Next to Dominos Pizza",12.9257141,79.1332752
Cars,Jains Hyundai,4.7,21,"108, Infant Leonard L-10054588, Alamelumangapuram, Vellore - 632009, Venkatapuram New Vasoor",12.942237,79.1830693
Cars,Amman Cars,4.8,21,"67, Katpadi Main Road, Gandhi Nagar East, Vellore - 632006, Gandhi Nagar",12.9257141,79.1332752
Cars,Jain Cars,4,3241,"108, Bangalore to Chennai Highway, Vasur, Vellore - 632514, Near Venkatapuram New Vasoor",12.9146092,79.0836632
Cars,Sarvesh Ford,3.9,3241,"296-3/2,, Chennai Bangalore Highway, Perumugai, Vellore - 632009, Indira Nagar, Perumugai",12.9061833,78.9547828
Cars,Vds Sayar Bajajs,3.8,846,"23, Katpadi Road, Vellore Bazaar, Vellore - 632004, Near New Bus Stand",12.9260181,79.1333695
Cars,Sayar Automotive Pvt Ltd,3.7,846,"31/2-4, Bangalore to Chennai Highways, Alamelumangapuram, Vellore - 632009, Opposite Ford Showroom, Perumugai",12.942224,79.1854767
Cars,Balaji Honda,3.9,786,"99/4b1, Balaji Honda Complex, Perumugai, Vellore - 632009, Near Kh Exports & Ggr College",12.9474417,79.2085926
Cars,Sri Amman Cars,4.9,786,"gu Nagar, Uthangarai, Tamil Nadu 635207, Tirupattur Main Road, Tirupattur, Tirupattur - 635601",12.3711699,78.5868125
Cars,Susee Motors India Pvt Ltd,4.2,484,"141, New Bye Pass Road, Kagithapattarai, Vellore - 632012, Near Chennai Silks Showroom, MP Sarathi Nagar",12.9292437,79.1440507
Cars,Ganesh Cars Pvt Ltd,4.1,484,"197/1B1, National Hishways 46, Kakankar Railway Station, Vellore - 635654, Near Toll Gate, Pethakallupalli, Vaniyambadi",12.9165167,79.1324986
Cars,Nexa Perumugai,4.2,242,"96/6, Nh 46, Chennai to Bangalore Highway, Perumugai, Vellore - 632009",13.0826802,80.2707184
Cars,Sayar Cars,3.9,242,"3004, New Bye Pass Road Chennai to Bangalore Highway Road, Vellore Fort, Vellore - 632004, Near Collector Office",12.9210886,79.129471
Cars,Jain Jubilant Cars Pvt Ltd,4.2,214,"374/375, Alamelumangapuram, Vellore - 632009, Venkatapuram New Vasoor",12.942237,79.1830693
Cars,Rdcmotor,3.7,214,"9, Indra Nagar, Sathuvacheri, Vellore - 632009, Perumugai Sathuvancheri",12.937608,79.1858252
Cars,Balaji Honda,4.1,114,"99/4b1, Balaji  Honda Complez, Perumugai, Vellore - 632009, Near  Kh Exports & Ggr  Collage",12.9474417,79.2085926
Cars,Ambur Babu Cars,4,114,"2, New Bypass Road, Vellore Market, Vellore - 632004, Opposite Hotel River View",12.9383897,79.1383677
Cars,DNV Bajaj,3.9,91,"1/12, Vaniyambadi Main Road ,Fakritakka, Thiruppattur Vellore, Tirupattur - 635601, Thamaleri Muthur Post ,Near Reliance Petrol Bunk",12.6744473,78.6206204
Cars,Ganesh Cars,4.3,91,"54/4, Krishnagiri Main Road, Tirupattur, Tirupattur - 635601, Near Velan Nagar Bus Stop & Amrita School",12.4922569,78.5657335
Cars,Nissan Cars,3.8,36,"huvachari Perumugai, Perumugai, Vellore - 632009",12.937608,79.1858252
Cars,Gurudev Motors,3.8,36,"298/1/2, Perumugai, Vellore - 632009, Balunagar",12.9439304,79.2013611
Cars,Jains Mahindra,3.8,28,"8, Lakshmi Nagar, Achamangalam, Tirupattur, Tirupattur - 635601",12.509648,78.5724729
Cars,Ganesh Cars,4.3,28,"rupathur, Vellore, Sh18, Vellore, Vellore, Salem Thirupathur Vaniyambadi Road, Tirupattur, Tirupattur - 635601",12.5006915,78.5695586
Cars,Senthil Motors,4.3,25,"523/4 Tnhb Phase 2, Dharmapuri Main Road, Tirupattur, Tirupattur - 635601, Paliiya Tiles",12.481685,78.5536635
Cars,My Tvs,3.2,25," Blue Theater, Palavansathukuppam, National Highway 234, Vellore - 632002",12.892321,79.1340386
Cars,Jain Cars & Auto Sales Pvt ..,4,23,"653 J M Palani Complex, Vaniyampadi Road, Tirupattur, Vellore - 635601, Vallalar Nagar",12.5080014,78.5693022
Cars,Jain Cars,3.8,23,"65, Tbn Biulding, Dindivenam Road, Vellore - 632009",12.9367973,79.1887115
Cars,Arcot Motors Pvt Ltd,4.5,19,"46, Sathuvacheri, Vellore - 632009, Chennai - Bangalore Highway",12.9400848,79.1731534
Cars,Vijay Sales Corporation,4,19,"99/ A, Vellore Katpadi Road, Gandhi Nagar Vellore, Vellore - 632006, Near Odai Pilliyar Kovil",12.9606193,79.1371994
Cars,Chevrolet India,4.4,6,lore - 632001,12.8954355,79.149209
Cars,Mani Auto Service,4.3,6,"ni Road, Bagayam, Vellore - 632002, Near Bagayam Police Station",12.8752635,79.1337692
Cars,Global Cars,4.7,6,"i Road, Adukkamparai, Vellore - 632011, Near GH",10.4712041,79.5753025
Cars,Samuthura Groups,4,6,"10, RKM Complex, 14th East Cross Street, Gandhi Nagar Vellore, Vellore - 632002",12.9501592,79.1391636
Cars,Isuzu Vehicle Sales,4.9,5," Trucking, Nandhiyalam Street, Nandiyalam, Vellore - 632517, Bharat Benze",12.9351765,79.252163
Cars,Sarvesh Trucks,4.5,5,"597, Tirupattur, Tirupattur - 635601, Near JMS Petrol Bunk, Lakshmi Nagar",12.5035105,78.5774408
Cars,Ganesh Trucks,3.4,5,"padi Road, CMC, Vellore - 632004, Near By Raymond",12.9244456,79.1352765
Cars,VDS Sayar Bajaj,4,5," 22/1, 2/2, Arni Road, Sainathapuram, Vellore - 632001, Dinakaran Bus Stop",12.8945099,79.1358899
Cars,Jubilant Datsun,4,4,"vey No 374 & 375 New Vasoor, Alamelumangapuram, Alamelumangapuram, Vellore - 632009",12.9403,79.1855853
Cars,Jain Jubilant Cars Pvt Ltd,3,4,"109, New Vasur, Rangapuram, Vellore - 632009, Bridge End",12.9422758,79.1710361
Cars,Ganesh Cars Pvt Ltd,4.2,2335,"32, New Bye Pass Road, Vellore Ho, Vellore - 632001, Near Green Circle",12.9282248,79.1271328
Cars,Sri Amman Cars INDIA Pvt Lt..,4,2335,"67, Katpadi Main Road, Gandhi Nagar Vellore, Vellore - 632006, Next to Dominos Pizza",12.9257141,79.1332752
Cars,Jains Hyundai,4.7,21,"108, Infant Leonard L-10054588, Alamelumangapuram, Vellore - 632009, Venkatapuram New Vasoor",12.942237,79.1830693
Cars,Amman Cars,4.8,21,"67, Katpadi Main Road, Gandhi Nagar East, Vellore - 632006, Gandhi Nagar",12.9257141,79.1332752
Cars,Jain Cars,4,3241,"108, Bangalore to Chennai Highway, Vasur, Vellore - 632514, Near Venkatapuram New Vasoor",12.9146092,79.0836632
Cars,Sarvesh Ford,3.9,3241,"296-3/2,, Chennai Bangalore Highway, Perumugai, Vellore - 632009, Indira Nagar, Perumugai",12.9061833,78.9547828
Cars,Vds Sayar Bajajs,3.8,846,"23, Katpadi Road, Vellore Bazaar, Vellore - 632004, Near New Bus Stand",12.9260181,79.1333695
Cars,Sayar Automotive Pvt Ltd,3.7,846,"31/2-4, Bangalore to Chennai Highways, Alamelumangapuram, Vellore - 632009, Opposite Ford Showroom, Perumugai",12.942224,79.1854767
Cars,Balaji Honda,3.9,786,"99/4b1, Balaji Honda Complex, Perumugai, Vellore - 632009, Near Kh Exports & Ggr College",12.9474417,79.2085926
Cars,Sri Amman Cars,4.9,786,"gu Nagar, Uthangarai, Tamil Nadu 635207, Tirupattur Main Road, Tirupattur, Tirupattur - 635601",12.3711699,78.5868125
Cars,Susee Motors India Pvt Ltd,4.2,484,"141, New Bye Pass Road, Kagithapattarai, Vellore - 632012, Near Chennai Silks Showroom, MP Sarathi Nagar",12.9292437,79.1440507
Cars,Ganesh Cars Pvt Ltd,4.1,484,"197/1B1, National Hishways 46, Kakankar Railway Station, Vellore - 635654, Near Toll Gate, Pethakallupalli, Vaniyambadi",12.9165167,79.1324986
Cars,Nexa Perumugai,4.2,242,"96/6, Nh 46, Chennai to Bangalore Highway, Perumugai, Vellore - 632009",13.0826802,80.2707184
Cars,Sayar Cars,3.9,242,"3004, New Bye Pass Road Chennai to Bangalore Highway Road, Vellore Fort, Vellore - 632004, Near Collector Office",12.9210886,79.129471
Cars,Jain Jubilant Cars Pvt Ltd,4.2,214,"374/375, Alamelumangapuram, Vellore - 632009, Venkatapuram New Vasoor",12.942237,79.1830693
Cars,Rdcmotor,3.7,214,"9, Indra Nagar, Sathuvacheri, Vellore - 632009, Perumugai Sathuvancheri",12.937608,79.1858252
Cars,Balaji Honda,4.1,114,"99/4b1, Balaji  Honda Complez, Perumugai, Vellore - 632009, Near  Kh Exports & Ggr  Collage",12.9474417,79.2085926
Cars,Ambur Babu Cars,4,114,"2, New Bypass Road, Vellore Market, Vellore - 632004, Opposite Hotel River View",12.9383897,79.1383677
Cars,DNV Bajaj,3.9,91,"1/12, Vaniyambadi Main Road ,Fakritakka, Thiruppattur Vellore, Tirupattur - 635601, Thamaleri Muthur Post ,Near Reliance Petrol Bunk",12.6744473,78.6206204
Cars,Ganesh Cars,4.3,91,"54/4, Krishnagiri Main Road, Tirupattur, Tirupattur - 635601, Near Velan Nagar Bus Stop & Amrita School",12.4922569,78.5657335
Cars,Nissan Cars,3.8,36,"huvachari Perumugai, Perumugai, Vellore - 632009",12.937608,79.1858252
Cars,Gurudev Motors,3.8,36,"298/1/2, Perumugai, Vellore - 632009, Balunagar",12.9439304,79.2013611
Cars,Jains Mahindra,3.8,28,"8, Lakshmi Nagar, Achamangalam, Tirupattur, Tirupattur - 635601",12.509648,78.5724729
Cars,Ganesh Cars,4.3,28,"rupathur, Vellore, Sh18, Vellore, Vellore, Salem Thirupathur Vaniyambadi Road, Tirupattur, Tirupattur - 635601",12.5006915,78.5695586
Cars,Senthil Motors,4.3,25,"523/4 Tnhb Phase 2, Dharmapuri Main Road, Tirupattur, Tirupattur - 635601, Paliiya Tiles",12.481685,78.5536635
Cars,My Tvs,3.2,25," Blue Theater, Palavansathukuppam, National Highway 234, Vellore - 632002",12.892321,79.1340386
Cars,Jain Cars & Auto Sales Pvt ..,4,23,"653 J M Palani Complex, Vaniyampadi Road, Tirupattur, Vellore - 635601, Vallalar Nagar",12.5080014,78.5693022
Cars,Jain Cars,3.8,23,"65, Tbn Biulding, Dindivenam Road, Vellore - 632009",12.9367973,79.1887115
Cars,Arcot Motors Pvt Ltd,4.5,19,"46, Sathuvacheri, Vellore - 632009, Chennai - Bangalore Highway",12.9400848,79.1731534
Cars,Vijay Sales Corporation,4,19,"99/ A, Vellore Katpadi Road, Gandhi Nagar Vellore, Vellore - 632006, Near Odai Pilliyar Kovil",12.9606193,79.1371994
Cars,Chevrolet India,4.4,6,lore - 632001,12.8954355,79.149209
Cars,Mani Auto Service,4.3,6,"ni Road, Bagayam, Vellore - 632002, Near Bagayam Police Station",12.8752635,79.1337692
Cars,Global Cars,4.7,6,"i Road, Adukkamparai, Vellore - 632011, Near GH",10.4712041,79.5753025
Cars,Samuthura Groups,4,6,"10, RKM Complex, 14th East Cross Street, Gandhi Nagar Vellore, Vellore - 632002",12.9501592,79.1391636
Cars,Isuzu Vehicle Sales,4.9,5," Trucking, Nandhiyalam Street, Nandiyalam, Vellore - 632517, Bharat Benze",12.9351765,79.252163
Cars,Sarvesh Trucks,4.5,5,"597, Tirupattur, Tirupattur - 635601, Near JMS Petrol Bunk, Lakshmi Nagar",12.5035105,78.5774408
Cars,Ganesh Trucks,3.4,5,"padi Road, CMC, Vellore - 632004, Near By Raymond",12.9244456,79.1352765
Cars,VDS Sayar Bajaj,4,5," 22/1, 2/2, Arni Road, Sainathapuram, Vellore - 632001, Dinakaran Bus Stop",12.8945099,79.1358899
Cars,Jubilant Datsun,4,4,"vey No 374 & 375 New Vasoor, Alamelumangapuram, Alamelumangapuram, Vellore - 632009",12.9403,79.1855853
Cars,Jain Jubilant Cars Pvt Ltd,3,4,"109, New Vasur, Rangapuram, Vellore - 632009, Bridge End",12.9422758,79.1710361
Cars,Ganesh Cars Pvt Ltd,4.2,2335,"32, New Bye Pass Road, Vellore Ho, Vellore - 632001, Near Green Circle",12.9282248,79.1271328
Cars,Sri Amman Cars INDIA Pvt Lt..,4,2335,"67, Katpadi Main Road, Gandhi Nagar Vellore, Vellore - 632006, Next to Dominos Pizza",12.9257141,79.1332752
Cars,Jains Hyundai,4.7,21,"108, Infant Leonard L-10054588, Alamelumangapuram, Vellore - 632009, Venkatapuram New Vasoor",12.942237,79.1830693
Cars,Amman Cars,4.8,21,"67, Katpadi Main Road, Gandhi Nagar East, Vellore - 632006, Gandhi Nagar",12.9257141,79.1332752
Cars,Jain Cars,4,3241,"108, Bangalore to Chennai Highway, Vasur, Vellore - 632514, Near Venkatapuram New Vasoor",12.9146092,79.0836632
Cars,Sarvesh Ford,3.9,3241,"296-3/2,, Chennai Bangalore Highway, Perumugai, Vellore - 632009, Indira Nagar, Perumugai",12.9061833,78.9547828
Cars,Vds Sayar Bajajs,3.8,846,"23, Katpadi Road, Vellore Bazaar, Vellore - 632004, Near New Bus Stand",12.9260181,79.1333695
Cars,Sayar Automotive Pvt Ltd,3.7,846,"31/2-4, Bangalore to Chennai Highways, Alamelumangapuram, Vellore - 632009, Opposite Ford Showroom, Perumugai",12.942224,79.1854767
Cars,Balaji Honda,3.9,786,"99/4b1, Balaji Honda Complex, Perumugai, Vellore - 632009, Near Kh Exports & Ggr College",12.9474417,79.2085926
Cars,Sri Amman Cars,4.9,786,"gu Nagar, Uthangarai, Tamil Nadu 635207, Tirupattur Main Road, Tirupattur, Tirupattur - 635601",12.3711699,78.5868125
Cars,Susee Motors India Pvt Ltd,4.2,484,"141, New Bye Pass Road, Kagithapattarai, Vellore - 632012, Near Chennai Silks Showroom, MP Sarathi Nagar",12.9292437,79.1440507
Cars,Ganesh Cars Pvt Ltd,4.1,484,"197/1B1, National Hishways 46, Kakankar Railway Station, Vellore - 635654, Near Toll Gate, Pethakallupalli, Vaniyambadi",12.9165167,79.1324986
Cars,Nexa Perumugai,4.2,242,"96/6, Nh 46, Chennai to Bangalore Highway, Perumugai, Vellore - 632009",13.0826802,80.2707184
Cars,Sayar Cars,3.9,242,"3004, New Bye Pass Road Chennai to Bangalore Highway Road, Vellore Fort, Vellore - 632004, Near Collector Office",12.9210886,79.129471
Cars,Jain Jubilant Cars Pvt Ltd,4.2,214,"374/375, Alamelumangapuram, Vellore - 632009, Venkatapuram New Vasoor",12.942237,79.1830693
Cars,Rdcmotor,3.7,214,"9, Indra Nagar, Sathuvacheri, Vellore - 632009, Perumugai Sathuvancheri",12.937608,79.1858252
Cars,Balaji Honda,4.1,114,"99/4b1, Balaji  Honda Complez, Perumugai, Vellore - 632009, Near  Kh Exports & Ggr  Collage",12.9474417,79.2085926
Cars,Ambur Babu Cars,4,114,"2, New Bypass Road, Vellore Market, Vellore - 632004, Opposite Hotel River View",12.9383897,79.1383677
Cars,DNV Bajaj,3.9,91,"1/12, Vaniyambadi Main Road ,Fakritakka, Thiruppattur Vellore, Tirupattur - 635601, Thamaleri Muthur Post ,Near Reliance Petrol Bunk",12.6744473,78.6206204
Cars,Ganesh Cars,4.3,91,"54/4, Krishnagiri Main Road, Tirupattur, Tirupattur - 635601, Near Velan Nagar Bus Stop & Amrita School",12.4922569,78.5657335
Cars,Nissan Cars,3.8,36,"huvachari Perumugai, Perumugai, Vellore - 632009",12.937608,79.1858252
Cars,Gurudev Motors,3.8,36,"298/1/2, Perumugai, Vellore - 632009, Balunagar",12.9439304,79.2013611
Cars,Jains Mahindra,3.8,28,"8, Lakshmi Nagar, Achamangalam, Tirupattur, Tirupattur - 635601",12.509648,78.5724729
Cars,Ganesh Cars,4.3,28,"rupathur, Vellore, Sh18, Vellore, Vellore, Salem Thirupathur Vaniyambadi Road, Tirupattur, Tirupattur - 635601",12.5006915,78.5695586
Cars,Senthil Motors,4.3,25,"523/4 Tnhb Phase 2, Dharmapuri Main Road, Tirupattur, Tirupattur - 635601, Paliiya Tiles",12.481685,78.5536635
Cars,My Tvs,3.2,25," Blue Theater, Palavansathukuppam, National Highway 234, Vellore - 632002",12.892321,79.1340386
Cars,Jain Cars & Auto Sales Pvt ..,4,23,"653 J M Palani Complex, Vaniyampadi Road, Tirupattur, Vellore - 635601, Vallalar Nagar",12.5080014,78.5693022
Cars,Jain Cars,3.8,23,"65, Tbn Biulding, Dindivenam Road, Vellore - 632009",12.9367973,79.1887115
Cars,Arcot Motors Pvt Ltd,4.5,19,"46, Sathuvacheri, Vellore - 632009, Chennai - Bangalore Highway",12.9400848,79.1731534
Cars,Vijay Sales Corporation,4,19,"99/ A, Vellore Katpadi Road, Gandhi Nagar Vellore, Vellore - 632006, Near Odai Pilliyar Kovil",12.9606193,79.1371994
Cars,Chevrolet India,4.4,6,lore - 632001,12.8954355,79.149209
Cars,Mani Auto Service,4.3,6,"ni Road, Bagayam, Vellore - 632002, Near Bagayam Police Station",12.8752635,79.1337692
Cars,Global Cars,4.7,6,"i Road, Adukkamparai, Vellore - 632011, Near GH",10.4712041,79.5753025
Cars,Samuthura Groups,4,6,"10, RKM Complex, 14th East Cross Street, Gandhi Nagar Vellore, Vellore - 632002",12.9501592,79.1391636
Cars,Isuzu Vehicle Sales,4.9,5," Trucking, Nandhiyalam Street, Nandiyalam, Vellore - 632517, Bharat Benze",12.9351765,79.252163
Cars,Sarvesh Trucks,4.5,5,"597, Tirupattur, Tirupattur - 635601, Near JMS Petrol Bunk, Lakshmi Nagar",12.5035105,78.5774408
Cars,Ganesh Trucks,3.4,5,"padi Road, CMC, Vellore - 632004, Near By Raymond",12.9244456,79.1352765
Cars,VDS Sayar Bajaj,4,5," 22/1, 2/2, Arni Road, Sainathapuram, Vellore - 632001, Dinakaran Bus Stop",12.8945099,79.1358899
Cars,Jubilant Datsun,4,4,"vey No 374 & 375 New Vasoor, Alamelumangapuram, Alamelumangapuram, Vellore - 632009",12.9403,79.1855853
Cars,Jain Jubilant Cars Pvt Ltd,3,4,"109, New Vasur, Rangapuram, Vellore - 632009, Bridge End",12.9422758,79.1710361
Cars,Sri Saravana Motors,4.8,2,"pass Rd-, Vellore Ho, Vellore - 632001",12.8954355,79.149209
Cars,Sayar Aautomotive (P) Ltd,4,2,"iyambadi Road, Tirupattur, Tirupattur - 635601, Near Chola Finance",12.5035105,78.5774408
Cars,MG Hector Vellore,4.1,2,"Showroom, Chennai Highway, Rangapuram, vellore - 632009, 3M Car Care Opp",12.8882095,78.9030459
Cars,Kun Isuzu,5,2,"vey No: 187/7b2, Bangalore Road, Walajapet, Vellore - 632513, Opposite to Rathnagiri Temple",12.9237733,79.131727
Cars,Kun Isuzu Tirupattur,5,10," Hero Showroom, Tirupattur Main Road, Thiruppattur Vellore, Vellore - 635601, Tamil Nadu",12.4795678,78.5738111
Cars,Team Kshatriya,4,10,"lore Ho, Vellore - 632001, Vit University",12.8954355,79.149209
Cars,Vijai Sales Corporation,2,1,"99/A, Vellore Katpadi Road, Katpadi, Vellore - 632007, Near Balajai Theatre & Near Odapillayar Koil Bus Stop",12.9606193,79.1371994
Cars,Ganesh Cars (P) Ltd,1,1,"96/6 NH46, Chennai to Bangalore Highway, Vellore HO, Vellore - 632001",12.8954355,79.149209
Finess Centers,B Fit Fitness Centre,4.3,222,"ind Bombay Ananda Bhavan, Mathi Nagar Road, Katpadi, Gandhi Nagar, Vellore - 632006",12.9598358,79.1368832
Finess Centers,Cosmic Yoga Studios,4.8,222,"gam Residency, Sankaranpalayam, Vellore - 632001, Opposite to Petrol Bunk",12.9040936,79.1358027
Finess Centers,Stayoung Fitness Equipments,4.7,28,"14 Bharathidasan Street, Arcot Byepass, Ranipet Vellore, Vellore - 632509, Near SSS College",12.9047129,79.3238106
Finess Centers,V Fitness Club,4.6,28,"7, 42nd Street, Phase 2, Sathuvacheri, Vellore - 632009, Near By Bombay Aananda Bhavan",12.9346432,79.157535
Finess Centers,Snap Fitness,4.2,5,"36 2nd Floor, RPM Street, Sankaranpalayam, Vellore - 632001, LG Showroom",12.9040936,79.1358027
Finess Centers,A J Fitness,4.5,5,"2, Chennai Salai, Vellore Engg College, Vellore - 632014, Opposite VIT Hallmart",12.9639956,79.1604971
Finess Centers,Sai Fitness Studio,4.6,51," 76 2nd  Floor  South Avenue Road, Sathuvacheri, Vellore - 632009, Near Court Next",12.9352979,79.1623982
Finess Centers,V Solid Unisex Fitness Stud..,4.9,51,"t 9, V Solid Unisex Fitness Studio, 48 B, Subramaniya Nagar, Kosapet, Arni Road, Sainathapuram, Vellore - 632001",12.8938095,79.1355175
Finess Centers,SnapFitness,4.1,36,"thri Nagar, Veerasamy Nagar, Krishna Nagar, Vellore - 632001",12.9017601,79.130863
Finess Centers,Iron Fitness & Weight Loss ..,4.7,36,"upet Road, Tirupattur, Tirupattur - 635601",12.5035105,78.5774408
Finess Centers,Slim Chance Fitness Studio,4.2,70,".R. Complex 2nd Floor, Tiruvalam Road, KATPADI VELLORE, Vellore - 632002, OPP - VIT Main Gate",12.9653375,79.151404
Finess Centers,Leo Gym,4.5,70," East Main Road, Rountana Mandapam Road, Gandhi Nagar West, Vellore - 632006, Near EB Stop, Above Elloras Building, Suthanthira Ponvizha Nagar",12.9477653,79.1424897
Finess Centers,M R Boxing Academy,4.4,68,"1, MUTHU NAGAR, Kagithapattarai, Vellore - 632012, GOVT SCHOOL BACKSIDE and NEAR BUSSTOP",12.9292437,79.1440507
Finess Centers,Friends Gym,3.8,68,"nnaistreet, Bharammapuram, Brahmapuram, Vellore - 632014",12.9657098,79.1675515
Finess Centers,V Fitness Club,4.6,64,", South Avenue, Corner, Sathuvachari, Murugan Theatre Road, Murugan Theatre Roadroad, Sathuvacheri, Vellore - 632009",12.93486,79.15432
Finess Centers,Krishna Fitwise Training,4.4,64,", Rajiv Gandhi Nagar, Rv Nagar, First Main Road, Krishna Nagar, Vellore - 632001, Krishna Nagar",12.8950482,79.13107
Finess Centers,Krishna Fitwise Training,4.4,43,"1, Azad Main Road, Vellore HO, Vellore - 632001, Near Debtor Ground Opposite",12.8992924,79.1310216
Finess Centers,Sri Durga Executives Gym,3.9,43,"4, Sathupalayam, Vellore - 632113, Near Sri Durganagar,Sathumadurai",12.8353052,79.135097
Finess Centers,Shape Up Unisex Fitness Hub,4.9,51,"b, Gmk Plaza, Tnhb Area, Walajapet, Vellore - 632513, Near By Csb Bank",12.9266525,79.3726025
Finess Centers,Sri Moogambigai Gym,4.1,51,"ot Road, Kagithapattarai, Vellore - 632012, Near Sri Thandava Vinayagar Temple",12.9292437,79.1440507
Finess Centers,Next Level Fitness,4.9,30,"64,1 St Floor,Dr Theater Complex, MBT RoadS, Ranipet Industrial Estate, Vellore - 632403, Near ESI Bus Stop",12.9673954,77.5812077
Finess Centers,King Gym,4.5,30,"128, Shankar Nagar, Sholinghur, Sholingur, Vellore - 631102, Near Sbi Bank",13.10627,79.4230178
Finess Centers,Spartan Multi Gym,4.9,25,"48, Seduvalai, Vellore - 632104",12.9117703,79.0073371
Finess Centers,Phoenix Fitness Centre,3.7,25,"86/1, Rathina Kulam Singh Street , Arani Road, Kosapet, Vellore - 632001",12.9103087,79.1332952
Finess Centers,Rajesh Gym,4.1,23,"ruvalluvar Nagar, Ramset Nagar, Thorapadi, Vellore - 632002",12.8886347,79.1244383
Finess Centers,Mgs Silambam School,4.7,23,"huvachari, Bramanar Street, Sathuvacheri, Vellore - 632009, Near Sivan Kovil",12.9402416,79.157168
Finess Centers,The Jazz Studio,4.8,22,"8  2nd Floor, Thirumalai Street, Walajapet, Vellore - 632513, Opposite to Indian Bank",13.0334978,80.1811069
Finess Centers,V.I.T. Outdoor Stadium,4,22," University, Vellore, Vellore HO, Vellore - 632001",12.8954355,79.149209
Finess Centers,World Gym,4.5,20,"17, Bujannarao Street, Walajapet, Vellore - 632513",12.9254169,79.3640845
Finess Centers,Kavin Fitness Center,4.4,20," Moonavur, Kel Moonavur Main Road, Abdullapuram, Vellore - 632010",12.9262591,79.0924734
Finess Centers,New Spartans Fitness Studio,4.5,11,"66, Anna Salai, Vellore - 632001, Upstair Vijya Bank",12.9031512,79.1317869
Finess Centers,Raj Western Gym,3.7,11,"42/B, Nallapattrai Chinna Street, Velapadi, Vellore - 632001",12.9262829,79.1418014
Finess Centers,Naveen Hitech Gym,3.6,11,".T. Road, Katpadi, Vellore - 632007, Near Apsara Theatre",12.9734246,79.1369301
Finess Centers,Preksha Yoga Centre,4.7,11,"ngam Nagar, Sedukkarai, Pudupet, Bosepet, Gudiyattam, Gudiyattam Railway Station, Vellore - 635803",12.9374566,78.916155
Finess Centers,Health Fitness Gym,3.7,11,"avaram, Vellore - 632505, SBI ATM Back Side",13.0170159,79.4816378
Finess Centers,Prasanna Shuttle Club,4.2,11,"iyambadi, Vellore - 632102",12.8056493,79.1359841
Finess Centers,Senguthar Fitness Centre,4.8,10,"apakkam, Vellore - 632521",12.9455928,79.2296074
Finess Centers,Amma Park And Amma Gym,4.7,10,"48, Vellore - 632517",12.9159732,79.233837
Finess Centers,Ram Gym,4.4,10,"edkar Street, Vellore HO, Vellore - 632001, Near By Watertank",12.8954355,79.149209
Finess Centers,Rock Gym,4.4,10,"11, Anaicut, Vellore - 632101, Near Anaicut",12.8801686,78.9882083
Finess Centers,Ronic Gym,3.7,8,"t Main Road, Katpadi, Vellore - 632007, Near A.P. Store",10.4712041,79.5753025
Finess Centers,Fitness Hub,5,8," University, Ulubari, Vellore - 632014",12.9639956,79.1604971
Finess Centers,Edakudam Boys,4.9,7,"apperi, Vaikom, Vellore - 631052",12.9515655,79.5491044
Finess Centers,Chandana Fitness Centre,4.3,7," M Nagar, Arch Entrance- Next to Uma Jewellery,, PALLIKONDA, Pallikonda, Vellore - 635809, Near Dhanammal Ranganathan Kalyana Mandapam, Gudiyatham Road.",12.9052676,78.9404553
Finess Centers,Power Star Team Grund Chitt..,3.4,7,"jurpattu, Vellore - 632057",12.8468789,79.1407421
Finess Centers,Kannan Gym,3.7,7,"nan Gym, Vellore, Vellore Bazaar, Vellore - 632002, Velore",12.9162201,79.1334919
Finess Centers,Subash Chandra Boss Army Ph..,4.6,7,"ur R.f, Vellore - 632405",12.9922438,79.3263742
Finess Centers,Leo Gym,4.4,7,", Arcot Road, Kagithapattarai, Vellore - 632012",12.9292437,79.1440507
Finess Centers,Multi Martial Arts Institut..,4.4,7,"r VIT, Near VIT ,Katpadi, Gandhi Nagar East, Vellore - 632006, Opposite to VIT",12.947547,79.1414652
Finess Centers,Alin Gym,4.4,7,"pampattu, Vellore - 632113",12.8076178,79.1167483
Finess Centers,Sri Moogambigai gym,4.2,5,"260,Arcot Road,Saidapet,Vellore., Saidapet Vellore, Vellore - 632012",12.928012,79.1427632
Finess Centers,Sps Talent Center,5,5,"3,Km Complex, Bharathi Nagar, Ranipet, Bharathidasan Road, Pachur, Vellore - 635854",12.9464172,79.323368
Finess Centers,Prakasaa Fitness Center,4.5,4,"54, Sholinghur, Sholingur, Vellore - 631102",13.1162527,79.4253547
Finess Centers,Aarthy Beauty Clinic And Gy..,3.5,4,"8, Gandhi Nagar, Gandhi Nagar Vellore, Vellore - 632006, 2nd East Main Road",12.954007,79.1387216
Finess Centers,Appollo Executive,3.4,4,"ollo Executive, Vellore, Kosapet, Vellore - 632001",12.9136297,79.1322992
Finess Centers,Ronnic Gym,5,4," 36/1, Vijay Complex, Battai Street,Arni Road, Velapadi, Vellore - 632001, Near Velapadi Bus Stop",12.9055467,79.1357791
Finess Centers,Jo And Ale Fitness Centre,4.8,4,"i Road, Edayansathu, Vellore - 632002, Opposite Govenment School",12.868996,79.1246055
Finess Centers,Alif Power Nutrition and Gy..,4.7,4,"ithapatarai, Kagithapattarai, Vellore - 632012",12.9292437,79.1440507
Finess Centers,Rajesh Multi Gym,4.5,4," 218, Azath Road, Thorapadi, Vellore - 632002, Near MGR Statue",12.8909984,79.123371
Finess Centers,Muscle Addicts Gym,5,4,"2/543/5, Jaya Prakash Narayan Nagar, Thennandiyalam, Melvisharam, Vellore - 632509, Opposite to Kh Boys School",17.5077301,78.3564221
Finess Centers,ronic gym,4,2,"r btm mahal, Gandhi Nagar Vellore, Vellore - 632006, silk mill kalinjur",12.9502618,79.1311277
Finess Centers,Robby Robinson,3,2,"diyan Complex, 1st Floor, Vivekanandan Street, Millenium Plaza, Gandhi Nagar Vellore, Vellore - 632006",12.9532598,79.1345699
Finess Centers,H H H Multi Gym,5,2,"135, Bangalore Road, Shenbakkam, Vellore - 632008, Near Bus Stop, Mullipalayam",12.922284,79.1108862
Finess Centers,Ajiths Palace,5,2," Janakiraman Layout, Kammavanpet, Varagur, Vellore - 632507",12.7721621,79.1800718
Finess Centers,Rambo Gym,5,1,"42 Sri Lakshmi Compiex 3rd Floor, Thoppai Chetty Street, Walajapet, Vellore - 632513, Via Fort",12.9263573,79.3659885
Finess Centers,Charan Fitness Studio,5,1,"601/281, Arakkonam Road,Park Street, Sholingur, vellore - 631102, Stellar IT Company Opposite",13.019338,79.7004195
Finess Centers,RajendiraSivakumar TREASURE..,5,1,"thavalli, Rajapalayam, Vellore - 635653, Mariamman Kovil Opp",12.4828686,78.6228504
Finess Centers,Iron Swim & Fit,5,1,"74/11 C, Su Pallipattu, Tirupattur, Tirupattur - 635601, Near Rani Mahal",12.4791028,78.5464532
Finess Centers,Theju Fitness Centre,4,1,"Sathish Complex, 8th East Main Road, Gandhi Nagar Vellore, Vellore - 632006, Near Dhanabakyam Kalyana Mandapam",12.950173,79.1415959
Finess Centers,Gym India Fitness Center,3.5,1," S Main Road, Natrampalli, Vellore - 635852",10.4712041,79.5753025
Finess Centers,Dheeran Chinna Malaiyar Sha..,3,1,"jurpattu, Vellore - 632057",12.8468789,79.1407421
Finess Centers,Deen Fitness & Gym,3,1,"119/16, Chairman Duraisamy Road, Tirupattur, Vellore - 635601",12.4950124,78.5678407
Finess Centers,Slim Chance Fitness Studio,4.2,1,"bhav Nagar, Katpadi north, Katpadi - 632007",12.9722081,79.1381555
Finess Centers,Aj Fitness,4.6,1,"nnaisalai, Katpadi north, Katpadi - 632007",12.9047505,79.132032
Finess Centers,Friends Shuttle Ground,5,45,"006, V G Rao Nagar, Bharathi Nagar, Katpadi north, Katpadi - 632007",12.9606505,79.1428826
Finess Centers,Olimpia Gym,2,45,"hupettai Road, Tirupattur, Vellore - 635601, gb complex kvp bank",12.4950124,78.5678407
Finess Centers,Palan Teju Dhanalakshmi Hou..,1,14,"ungalipatti, Vellore - 635654",12.4319255,78.4865602
Finess Centers,Arnold Fitness Center,0.5,14," Bus Stand, Textile Market, Tirupattur, Vellore - 635601",12.4978827,78.568525
Chemists,Alshifa Medicals,2.3,5,"50/A, BTC Road, Saidapet Vellore, Vellore - 632012, Near Seenu Sweet Stall",12.9202269,79.1400052
Chemists,Jan Aushadhi Makkal Marundh..,4.9,5,"1/5, Officers Line, Krishna Nagar, Vellore - 632001, Near Darling Residency Hotel",12.9036773,79.1318878
Chemists,Bawa Smart Pharmacy,5,4,"11, Officers Line, Vellore - 632001, Opposite to Anna Kalaiarangam",12.9096576,79.1321421
Chemists,Sri Suki Pharma,3.7,4,"637, Phase 2 South Avenue Road, Sathuvacheri, Vellore - 632009, Near Baba Hospital",12.934129,79.1571682
Chemists,Rajan Medicals,4.2,6,"34 A Kmc Shopping Complex, Kosapet, Vellore - 632001, Opposite Raja Theatre",12.9142112,79.1324025
Chemists,Apollo Pharmacy,4.1,6,"47, Krishnagiri Main Road, Chairman Durai Street, Vellore Bazaar, Vellore - 632004, Near Hospital Bus Stop",12.9162201,79.1334919
Chemists,Apollo Pharmacy,4.1,10," No 73 Old No 15/2, Dr Idda Scuddar Road, Vellore Bazaar, Vellore - 632004, Near Cmc",12.9237401,79.1337152
Chemists,Jandice Medicine House,4.5,10,"ajapet, Vellore - 632513",12.9254169,79.3640845
Chemists,M S Medicals,5,190,"adarami, Vellore - 632603",13.0624947,78.9401383
Chemists,Medplus,4,190,"p No 3, Ground Floor, No 263/B1, RTO Road, Phase II, Sathuvacheri, Vellore - 632009, Near Sathuvachari Bus Stop",12.9348973,79.1559226
Chemists,Rajan Medicals,4.3,32,"264/2, Sathuvacheri, Vellore, RTO Office Road, Sathuvacheri, Vellore - 632009",12.9308021,79.1574316
Chemists,Bawaa Pharmacy,4.4,32,"82, Chandra Residency, IDA Scudder Road, CMC, Vellore - 632004, Opposite CMC Main Gate",12.9239027,79.1351226
Chemists,Apollo Pharmacy,3.9,29,"p No 75 Old No 33, MBT Road Trunk Road, Walajapet, Vellore - 632513",12.967776,77.5812399
Chemists,Medplus,3.8,29,"26, Chittoor Road, Gandhi Nagar Vellore, Vellore - 632006, Near Silk Mill Bus Stop",12.9778884,79.1368714
Chemists,Medplus,3.8,28,": 26, Chittor Main  Road, Gandhi Nagar Vellore, Vellore - 632006, Nearby ICICI ATM Opposite",12.9778884,79.1368714
Chemists,Kayes Pharmacy,4.1,28," A, Vellore Road, Katpadi, Vellore - 632007, Near Panchayat Board Office",12.9599877,79.1372625
Chemists,Jan Aushadhi,4.7,28,"20, Thilagam Complex, Kangeyanallore Road, Gandhi Nagar Vellore, Vellore - 632006, Near Dkm Kalyana Mandapam Gandhi Nagar,Near Dkm Kalyana Mandapam Bus Stop",12.9502398,79.1414309
Chemists,Sun Medicals,4.7,28,":78, Sripuram Road, Thorapadi, Vellore - 632002, Near Periyaallapuram",12.8599271,79.0951094
Chemists,Sun Medicals,4.7,28,"78, Azad Road, Thorapadi, Vellore - 632002, Opp LAKCHANA SWEETS",12.9002661,79.1312036
Chemists,Karpagam Co-Operation Medic..,4,28,"ice Line, Krishna Nagar, Vellore - 632001, Near Karpagam Super Market",12.8965944,79.133893
Chemists,Banu Medicals,3.8,21,": 75/2, Ida Scudder Road,Arcot Road, Vellore Fort, Vellore - 632004, Near Cmc Hospital Opp",12.9240448,79.1358046
Chemists,Rajan Medicals,3.3,21,"32/A, East Cross Street, Gandhi Nagar Vellore, Vellore - 632006, Opposite Silk Mill Store",12.9531237,79.1263897
Chemists,Saravana Pharmacy,3.3,21,"22/1, Mens Hostel, Between C & D Block, Vit University Campus, Vellore - 632014",12.9639956,79.1604971
Chemists,Apollo Pharmacy,4.5,21,"14/6, Chittoor Salai, Gandhi Nagar Vellore, Vellore - 632006, Near Silkmill",12.950073,79.1368247
Chemists,Rajan Medical Main,2.9,16," 3, Jawan's Market, Vellore, Vellore - 632001, Near Postoffice",12.8954355,79.149209
Chemists,Sarvana Medical Shop,3.4,16," University, Vellore Engg College, Vellore - 632014",12.9074795,79.2958108
Chemists,City Medical,4.6,15," St, Pudupet, Melvisharam, Vellore - 632509",12.9244084,79.2662575
Chemists,Madura Medicals,3.9,15,"6 A, Palanisamy Road, Tirupattur, Tirupattur - 635601, Near CSI Church",12.5035105,78.5774408
Chemists,Imran Medical,4.6,15,"asalai Main Road, Melvisharam, Vellore - 632509, Opp to Masoothi",10.4712041,79.5753025
Chemists,HARE Krishna Medicals,4.5,15,", MARKET ST, Sholingur, Vellore - 631102, SHOLINGHUR",13.1157725,79.4196075
Chemists,Vasan Medical Hall,4.1,11,"0/3, Arcot Road, Vellore Bazaar, Vellore - 632004, Near Christian Medical College",12.9353876,79.153911
Chemists,Jeevan Pharmacy,3,11,"5 KGN Complex Ground Floor, Arni Road, Bagayam, Vellore - 632002",12.8422225,79.1341166
Chemists,Jeevan Pharmacy,3,11,"287A, Arni Road, Virupakshipuram, Vellore - 632002, Opposite KVB ATM",12.8895471,79.1357816
Chemists,Krishna Medicals,4.7,11,"122, Alangayam, Alangayam, Vellore - 635701",12.6266706,78.7504547
Chemists,Shameem Pharmacy,4.4,11,", Annasalai Main Road, Melvisharam, Vellore - 632509",12.9170943,79.2783481
Chemists,Apollo Pharmacy,4.3,11,"296 A, Arni Road, Bagayam, Vellore - 632002, Virupathchipuram",12.8895416,79.1356594
Chemists,Rz Medicals,4.3,10,"@26, Abdul Hakeem Road, Melvishram Vellore, Vellore - 632509, Near Fathima Clinic Melvisharam",12.9148847,79.2797936
Chemists,Rajan Medicals,4.3,10,"5, MBT Road, Walajapet, Vellore - 632513",12.9677261,77.5813277
Chemists,Apollo Pharmacy,4,10,"429, Highway Road, Gudiyattam Railway Station, Vellore - 635803, Pernampet",12.9374566,78.916155
Chemists,Sri Suki Pharma,3.7,10,"huvacheri, Vellore - 632009, Near Vallalar School",12.9389523,79.1672585
Chemists,Apollo Pharmacy,3.4,10,"21, Post Office Street, Sholingur, Vellore - 631102",13.1151264,79.419293
Chemists,Ifra Medicals,4.9,10,"7, Railway Station Road, Tirupattur, Vellore - 635601, Near By Vadamalai Bhavan Hotel",12.4977053,78.5623526
Chemists,Modern Nursery Gardens,4,9,"iyandapalli, Vellore - 635651",12.5221862,78.4865602
Chemists,Anu Medicals,4.6,9,"94, Thennamara Street, Kosapet, Vellore - 632001, Near Rapson Drughouse",12.9137506,79.1349429
Chemists,Government Veterinary Hospi..,4.2,7,"ikalmedu, Pudupettai, Pudupettai, Vellore - 635651",12.5324955,78.5100644
Chemists,Apollo Pharmacy,3.7,7,"638/B, RTO Road, Sathuvacheri, Vellore - 632009, Near King Mobile",12.933941,79.156428
Chemists,Appollo Pharmacy,3.2,9,"visharam, Vellore - 632509",12.9157591,79.2799607
Chemists,Lakshmi Medicals,5,9,"37/272, Gandhi Road, Vellore Bazaar, Vellore - 632004, Opposite CMC Hospital",12.9219225,79.1353122
Chemists,Sri Suki Pharma,4.6,9," No.5 New No.17, 4th East Main Road, Gandhi Nagar East, Vellore - 632006, Next to SBI Atm",12.97364,79.1394
Chemists,Modern Medicals,4.6,9,"ez Complex, Melvisharam, Vellore - 632509, Next to Fatima Hospital",12.9157591,79.2799607
Chemists,Rks Medicals,4.5,8,"205, Main Bazaar, Vellore Bazaar, Vellore - 632004, Near Perumal Koil",12.923175,79.1379733
Chemists,Apollo Pharmacy,3.8,8,"272, Chittoor Road, KATPADI VELLORE, Vellore - 632002, Near Chittoor Bus Stop",12.966768,79.1372585
Chemists,Sri Kannan Homeo Medical St..,3.7,8,"7, Subrayan Street, Velapadi, Vellore - 632001, Dsp Bunglow Near",12.9030716,79.1417746
Chemists,Grace Pharmacy,2.8,8,"eripakkam, Vellore, Nh 4, Arcot, Arcot, Madras Bombay Trunk Road, Kaveripakkam, Vellore - 632508",15.3166045,75.1437005
Chemists,S R Pharmaceuticals,4.9,8,"9 Ist Floor, GCM Street, Vellore Bazaar, Vellore - 632004, Long Bazaar",12.9162201,79.1334919
Chemists,Arul Medicals & General Sto..,4.9,8,"hupet Main Road, Tirupattur, Tirupattur - 635601, Opp TMS School",12.5035105,78.5774408
Chemists,Leo Medicals,4.7,8,", Arni Road, Bagayam, Vellore - 632002, Near Otteri",12.8422225,79.1341166
Chemists,Deepak Pharmacy,4.5,8,"45/1, 7th East Main Road, Gandhi Nagar East, Vellore - 632006, Opposite More Super Market",12.9580799,79.14261
Chemists,Apollo Medicals,4.5,7,"iyambat, Vellore, Sh130, Vellore, Vellore, Vaniyambadi Gudiyattam Road, Unai Vaniyambadi, Vellore - 632101",12.6944917,78.6197755
Chemists,Jeelani Medicals,4.4,7,"amangalam, Tirupattur, Vnb Main Road, Asiriyar Nagar, Vellore - 635601",12.4896893,78.5848458
Chemists,Sree Lakshmi Medicals,4.3,7,"71/A, Battai Street, Velapadi, Vellore - 632001, Near Bus Stop",12.9056333,79.1353857
Chemists,Sri Ragavendra Medicals,4.3,7,"1/1, GBV Complex, TVK Street, Thottapalayam, Vellore - 632012, Behind GRT Resedency",12.9317208,79.135097
Chemists,Sri Ganapathy Medicals,4.1,7,"9/A, Bangalore Road, Vellore - 632004, Near Vetnary Hospital",12.9240784,79.1235681
Chemists,Kalpana Medicals,4,7,"2 Janaki Sivam Complex, Thiruvalam Road, KATPADI VELLORE, Vellore - 632002, Near By Eb Office",12.9653375,79.151404
Chemists,Sri Ram Medicals,3.9,7,"265/B1 Phase II, RTO Road, Sathuvacheri, Vellore - 632009, Opposite to Bombey Anandha Bhavan",12.934399,79.1562423
Chemists,Sri Venkateswara Medicals,3.9,7,"1/172, Krishnagiri Main Road, Kasinaikenpatti, Vellore - 635602, Near By Pillaiyar Kovil",12.484284,78.555107
Chemists,Apollo Pharmacy,2.9,7,"17, Ezhil Nagar, Vinagayapuram, Thorapadi, Vellore - 632002, Opposite Indian Oil Petrol Bunk,",12.8934928,79.1269952
Chemists,New Howrah Medicals,2.8,7,": 42/1, Sukkiya Vathiyar Street, Vellore Market, Vellore - 632004, Nearby CMC Hospital",12.9192201,79.1387668
Chemists,Green Pharmacy,4.7,7,"03, 8th East Main Road, Gandhi Nagar Vellore, Vellore - 632006, Near Dhanabagiyam Kalyana Mandabam Bus Stop",12.9502872,79.140597
Chemists,Ganesh Medicals,4.4,7,"1/C, Mohammad Ibrahim Sahib Street, Vellore Kasba, Vellore - 632001, Opposite Perumal Kovil",12.9062485,79.1270776
Chemists,Raja Medicals,4.3,6,"4, Anna Salai, Vellore Bazaar, Vellore - 632004, Opposite Ambedkar Statue",12.9123588,79.1307251
Chemists,Indian Medicals,4.3,6,"82, Ida Scudder Road, CMC, Vellore - 632004, Opp CMC MAIN GATE",12.9238639,79.1349278
Chemists,Saravana Medical Store,4.3,6,"122, Alangayam, Vellore - 635701",12.6266706,78.7504547
Chemists,Sri Sakthi Amma Pharmacy,4.1,6,", Narayani Peedam, Sri Puram, Thirumalai Kodi, Thirumalaikodi, Ariyur Vellore, Vellore - 632055, Sri Narayani Vidyalaya-Vellore Ariyur",12.8741262,79.0882581
Chemists,Apollo Pharmacy,4,6,"158/159, Arcot Vellore Bye Pass Road, Melvishram Vellore, Vellore - 632509, Inside Apollo K H Hospital",12.9224992,79.2751185
Chemists,Apollo Pharmacy,3.9,6,"272, Chittoor Road, Katpadi, Vellore - 632007, Near Chittoor Bus Stop",12.966768,79.1372585
Chemists,Sree Renuga Medicals,3.7,6,"epet, Gudiyattam, Thangam Nagar Main Road, Anna Nagar, Vellore - 632001",12.9427995,78.8681614
Chemists,Vasan Medical Hall,3.4,6," Scudder Road, Thottapalayam, Vellore - 632012, Opposite Cmc Main Gate",12.9244456,79.1352765
Chemists,Sri Thirumal Medical,5,6," Stand, Inside New, Salem Vaniyambadi Road, Tirupattur, Vellore - 635601",11.941926,78.4069585
Chemists,Sri Ambal Medicals,4.8,6,"9A, Post Office Street, Sholingur, Vellore - 631102, Near Post Office",13.1151169,79.4191574
Chemists,Apollo Medicals,4.6,5,"659,, Alangayam, Vellore - 635701, Alangayam R.f",12.6266706,78.7504547
Chemists,Kalai Medical,4.2,5," 6, Palani Swamy Road, Tirupattur, Tirupattur - 635601, Near Kamarajar Silai",12.5035105,78.5774408
Chemists,Geetha Pharmacy,4.1,5," 93/94 arcort road Vellore Cantonment, Vellore, Katpadi Road, Vellore Bazaar, Vellore - 632004, cmc opp",12.9341976,79.1509918
Chemists,Apollo Pharmacy,3.6,5,"296A, Arni Road, Virupakshipuram, Vellore - 632002",12.8895416,79.1356594
Chemists,Digha Medicals & Cosmetics,4.9,5,"333, Main Bazaar Road, Saidapet Vellore, Vellore - 632012",12.9241169,79.1392093
Chemists,Sri Ranga Medicals,4.9,5," No 30 Old No 4.49, Arni Road, Virupakshipuram, Vellore - 632002, Near Virupatchipuram",12.8896042,79.1357789
Chemists,Sakthi Medicals,4.8,5,"1/80,, Kaliyamman Koil St., Kilalathur, Vellore - 635803",12.9536669,78.8723592
Chemists,Rajan Medical,4.5,5,"1, Battai Street, Vellore HO, VELLORE - 632001, Next to Jothi Hospital",12.9056964,79.1359239
Chemists,Sri Ganapathy Medicals,4.5,4,"752, Bangalore Road, Konavattam Vellore, Vellore - 632013, Near Konavattam",12.922131,79.1135242
Chemists,Asa Medicals,4.5,4,"24, GPH Road, Kosapet, Vellore - 632001",12.9136297,79.1322992
Chemists,Apollo Pharmacy,4.5,4,"11, Auxillium College Road, Gandhi Nagar Vellore, Vellore - 632006",12.9571419,79.1461874
Chemists,Siva Medical Hall,4.5,4,"p No 2 Door No 22, 6th West Cross Road ,Gandhinager,West.kazhinjur Main Ro, Kazhinjur Road, Gandhi Nagar West, Vellore - 632006, Near Water Tank",12.9466973,79.1366563
Chemists,Chakkara Medical,4.5,4,"upattur, Vellore - 635601",12.4950124,78.5678407
Chemists,Kolkata Medicals,4.2,4,"155/1, Main Bazaar Road, Saidapet Vellore, Vellore - 632012, Near Kodaiadi School",12.9262255,79.1422746
Chemists,Skr Medicals,4.2,4,"/2, Main Bazaar Road, Saidapet Vellore, Vellore - 632012, Murugan Temple Near Ny",12.9251331,79.1404217
Chemists,K S Medicals,4.1,4,"23/1, New Sankaranpalayam Road, Krishna Nagar, Vellore - 632001, Near Toll Gate",12.9002308,79.133227
Chemists,Grace Medicals,3.8,4,"3, Arni Main Road, Adukkamparai, Vellore - 632011, Oppt to Govt Vellore Medical College &hospital",12.8503519,79.1360977
Chemists,Gandhi Medicals,3.5,4,"6, Thirumalai Street, Walajapet, Vellore - 632513",13.0342104,80.1811735
Chemists,Elagiri Agro Service,3.5,4,", Vaniyamaboodi Mainroad, Jolarpettai, Vellore - 635851, Near Opposite Metriculation School",12.6394451,78.6857598
Chemists,Apollo Pharmacy,3.4,4,": 54/12, Katpadi Road, CMC, Vellore - 632004, Nearby CMC Out Gate",12.9308399,79.1347799
Chemists,Sri SAI Medicals,3.2,4,"3/1& 2 Pb Complex, Uppukara Street, Walajapet, Vellore - 632513, Opposite to CSI Church Road",12.9268212,79.3621025
Chemists,Leo Medicals,3,4,"121 A, Otteri, Arni Road, Bagayam, Vellore - 632002",12.884093,79.13564
Chemists,Medplus,5,4,"4, Rathinasingh Kulam Street, Velapadi, Vellore - 632001, Opposite S P Bungala",12.9057876,79.1344732
Chemists,Medplus,5,4,"4, Rathinasingh Kulas Treet, Velapadi, Vellore - 632001",12.9030716,79.1417746
Chemists,Shanthi Medicals,5,3,"B, Bazzar Street, MBT Road, Walajapet, Vellore - 632513, Opposite to Vaasavi Mahal",12.9245183,79.3306798
Chemists,Lifecare Specialities,5,3,"/ L, 1st Floor, Arcot Road, Sathuvacheri, Vellore - 632009, Next to Dr.Sivakumar Hospital",12.9344135,79.152535
Chemists,Sri Balaji Medicals,5,3,"11, Adavanthal Kanathoram Street, Vellore Kasba, Vellore - 632001, Near Railway Gate",12.8954355,79.149209
Chemists,Rajeshwari Medicals,5,3,"74/3, Arni Road, Sainathapuram, Vellore - 632001, Near Sainathapuram Bus Stop",12.9041874,79.13548
Chemists,Om Siva Medicals,4.5,5,"2/2, Vellore Road, KATPADI VELLORE, Vellore - 632002, Near Tharapadavedu",12.9618282,79.1371112
Chemists,Sri Kumaran Medicals,5,5,"6 /I, 2nd East Main Road, Gandhi Nagar East, Vellore - 632006, Opposite Bala Skin Care",12.957642,79.1387805
Chemists,Sri Senraya Medicals,5,3,".S Nagar, Krishnagiri Road, Tirupattur, Vellore - 635601",12.4854104,78.5610175
Chemists,Krishna Medical,5,3,"upettai, Pudupettai, Tirupattur - 635651, Opp India One Atm",12.5274807,78.5304666
Chemists,Tamilarasan Medicals,4.8,3,"1C, Arni Road, Sankaranpalayam, Vellore - 632001, Near Sankaranpalayam Bus Stop",12.9066932,79.1341835
Chemists,Sai Medicals Shop,4.7,3,"1,49 Sarathi Mansion, Officers Line, Vellore Bazaar, Vellore - 632004",12.9162201,79.1334919
Chemists,Sanjeevi Medicals,4.7,3,"19/1, Gandhi Road, Sholingur, Vellore - 631102",12.8770629,79.1048683
Chemists,Sri Ram Medicals,4.7,3,"285, Pillayar Koil Street, Thottapalayam, Vellore - 632012, Near Avanayan Hotel Opst",12.9260175,79.138307
Chemists,Rajini Medicals,4.7,3,"lore, Nh46, Arcot, Arcot, Arapakkam, Vellore - 632517",12.9458713,79.2294201
Chemists,Bharti Pharmacy,4.7,3,"t Office Street, Sholingur, Vellore - 631102",13.1115847,79.4310052
Chemists,Sri Srinivasan Medicals,4.6,3,"58, GPH Road, Krishna Nagar, Vellore - 632001, Opposite to ESIC Hospital",12.8965944,79.133893
Chemists,Medplus Melvisharam Khadar ..,4.3,3,"r No, Ground Floor Shop No 1 2 3&4, 1/1, Khaderpet, Vellore - 632509",11.1068276,77.3403391
Chemists,Suresh Medical,4.3,3,":1 AKMC Angaadi, Avalkara Street, Vellore HO, Vellore - 632001, Opp Raja Theater",12.9142112,79.1324025
Chemists,Sri Balaji Medicals,4.2,3,"2/19, Arni Main Road, Adukkamparai, Vellore - 632011, Opposite VGMC Hospital",12.8678018,79.1331214
Chemists,New Dinesh Pharmacy,4,3,"285, Phase-I, Sathuvacheri, Vellore - 632009, Nearby Annapoorna Mess",12.9422134,79.1860302
Chemists,Sri Narayani Medicals,4,3,"440/1a Phase III, Nethaji Bose Street, Sathuvacheri, Vellore - 632009",12.9418847,79.1673268
Chemists,Tnmsc District Drug Warehou..,4,3,"Sanatorium Campus, Adukkambarai Post, Adukkamparai, Vellore - 632011",12.8465615,79.1386203
Chemists,Om Sri Ganapathi Medicals,4,3,"i Road, Timiri, Vellore - 632512",12.8311732,79.303607
Chemists,Siva Medicals,4,3,"20, Cutchery Street, Tirupattur, Tirupattur - 635601, Near Arignar Anna Primary School",12.4921481,78.5677541
Chemists,Siva Medicals,4,3,"20, Cutchery Street, Thiruppattur Vellore, Vellore - 635601, Opposite Arignar Anna nagaratchi School",12.4921481,78.5677541
Chemists,Sk Pharmacy,3.6,3,"kar Mundy St, Sripuram, Saidapet, Vellore - 632002, Masuthi Near",12.9216534,79.1373356
Chemists,Sri Balaji Medical,3.6,3,"rumalaikodi, Ariyur Vellore, Vellore - 632055",12.8757375,79.1019256
Chemists,Appolo Hospitals Enterprise..,3.5,3,"21, Post Office Street, Sholingur, Vellore - 631102, Near Aarthi Collections",13.1151264,79.419293
Chemists,Sree Sutha Homeo Pharmacy,3.3,3," Voorhees School Complex, Kosapet, Vellore - 632001, Opposite to Hospital Gate",12.9124137,79.132016
Chemists,Modern Medical Shop,3.3,3,"4/11 Shop No 3, Nawab Nagar, Vellore - 632517, Near Balamurugan Temple",12.9159732,79.233837
Chemists,Sooriya Medicals,2.8,3,"34/29, 7th East Main Road, Gandhi Nagar Vellore, Vellore - 632006, Near EB Stop",12.957142,79.1417168
Chemists,Medplus,5,3,"141/71, 143/72, Chittoor Road, Katpadi, Vellore - 632007, Opposite Taj Complex",12.9677973,79.1371991
Chemists,Ganesh Medical,5,3,"ili, Nemili Senthamangalam Road, Sendamangalam, Vellore - 631051",12.9843071,79.644231
Chemists,Kumaran Medicals,5,3,"91/C  24, Azad Road, Thorapadi, Vellore - 632002, Opposite Murugar Temple",12.8914399,79.1238124
Chemists,Jan Aushadhi,5,3,"1/174, National Highway 46, Puttuthakku, Vellore - 632517",12.9453137,79.2328733
Chemists,Velmurugan Medicals,5,2,"10, Auxilium College Road, Gandhi Nagar Vellore, Vellore - 632006, Near Roundana",12.9571419,79.1461874
Chemists,new golden medicals,5,2,"2 AKMC Angadi, Officers Line, Vellore - 632001, Opposite to Raja Theatre",12.9146517,79.1326141
Chemists,Bluesun Medicals,5,2,": 56/1, Bangalore Road, Shenbakkam, Vellore - 632008, Near Shenbakkam EB Bus Stop",12.9224193,79.1138258
Chemists,Naga Medicals,5,2,"akadai Street , Marakadai Street, Arasamarapet, Vellore - 632004, Near Ing Vysya Bank",12.9170892,79.1335136
Chemists,Jeevitha Medicals,5,2,"17, Councelor Abdul Latheep Street, Rn Palayam, Vellore - 632001, Thorapadi",12.9119095,79.1227956
Chemists,Siva pharmaceuticals,5,2,"tha, arasamaram pet, Arasamarapet, Vellore - 632004",12.9258108,79.1294516
Chemists,Mala Medicals,5,2,"141/2e, Nethaji Road, Shenbakkam, Vellore - 632008, Near Gandhi Statue",12.9241771,79.1163733
Chemists,Shree Medicals,5,2,"176/A, IDA Scudder Road, Cmc, Vellore - 632004, Near Hotel Saravana Bhavan",12.9244456,79.1352765
Chemists,Sangeetha Medicals,5,2,"79, Arni Road, Sainathapuram, Vellore - 632001, Near Bus Stop",12.896663,79.1353506
Chemists,Sri Rajarajeswari Medicals,5,2,"15/1, New Katpadi Road New Bus Stand, Vellore Ho, Vellore - 632001, Near Chelliammana Kovil",12.9344459,79.1367751
Chemists,Jeevan Pharmacy,5,2,"71, Arni Road, Otteri Road-Bagayam, Vellore - 632002, Next to MKS Electronics",12.9056475,79.1353852
Chemists,Shri Sai Medicals & Clinic,5,2,"/1a, Phase Iii, Sathuvachari, Vallalar, Double Road, Sathuvacheri, Vellore - 632009, Opposite Yuva Market",12.9387139,79.1667187
Chemists,Sri Balaji Medicals,5,2,"4/98, Mel Mayil Road, Kv Kuppam, Vellore - 632201, Opposite Bus Stand",12.9725761,78.9914434
Chemists,Muhyi Enterprises,5,2," 3/31, Annai Therasa Street, Veppur, Vellore - 635803, Veppur",12.8907278,79.1268862
Chemists,Uma Medicals,5,2,", Bajanai Kovilstreet, Odugathur, Vellore - 632103",12.768665,78.8818466
Chemists,Sri Variyar Medicals,5,2,"k, (, Kanchipuram Main Road, Pallur, Vellore - 631051, Opposite Thirumalpur R.S) Pallur Arakonam Tk Vellore D.t",12.9543195,79.6742366
Chemists,Medcare Pharmacy,5,2,"nson Baby Products In, No 27, Iii, Fort Area, Jinna Road, Tirupattur, Vellore - 635601",12.4928873,78.5720132
Chemists,Habeeb Stores,5,2,"upattur, Vellore - 635601",12.4950124,78.5678407
Chemists,New Sapthagiri Medicals,5,2,"594 Tnhb, Krishnagiri Road, Thiruppattur Vellore, Vellore - 635601, Opp Raja Rani",12.4854104,78.5610175
Chemists,Raja Medicals,4.8,2,"28, Collectrate New Byepass Road, Vellore Bazaar, Vellore - 632004, Near Jayanthi Residency",12.9282248,79.1271328
Chemists,Star Pharmacy,4.8,2,"1, Chennai Salai VIT Road, Katpadi, Vellore - 632007, Near Bank Of India",12.9682425,79.1479022
Chemists,Siva Sakthi Medical,4.8,2," Police Station Road, Jolarpettai, Kodiyur, Vellore - 635851",12.5687194,78.5748962
Chemists,Annai Medicals,4.7,2,"1/73, Vallimalai Road, Katpadi, Vellore - 632007, Nearby Jothi College",12.9849514,79.1445789
Chemists,Jan Aushadhi,4.5,2,"521, Phase 2, RTO Office Road, Sathuvacheri, Vellore - 632009, Near Ethiraj Matriculation Higher Secondary School",12.9333943,79.1565729
Chemists,Swiss Medicals,4.5,2,"32/A, Arcot Road, Vellore Bazaar, Vellore - 632004, Opposite CMC",12.9264,79.1412299
Chemists,Rajesh Medicals,4.5,2,"80A, Azad Road, Thorapadi, Vellore - 632002, Near Thorapadi Jail, Periya Allahpuram",12.8920651,79.1243251
Chemists,Geetha Medicals,4.5,2,", Bazaar Street, Ammoor., Ammoor, Vellore - 632501",12.9912069,79.3042802
Chemists,Aishwarya Medical Shop,4.5,2,"3, VIT ROAD, Katpadi, Vellore - 632007, Chittoor Bus Stand",12.9688486,79.1428471
Chemists,Kalpana Medicals,4.5,2,"linghur, Vellore, Post Office Street, Sholingur, Vellore - 631102",13.1151254,79.4205794
Chemists,Krishna Medicals,4.5,2," cinna road Main Market, Tirupattur, Vellore, jinna road, Tirupattur, Vellore - 635601, Near ambetgar Statue",12.4928873,78.5720132
Chemists,Babu Medicals,4.3,2,"63/1, Pandiyan Complex, Veppamara Street (PSM Street), Velapadi, Vellore - 632001, Near Annamalaiyar Hospital",12.9058556,79.1343749
Chemists,Leena Industries,4.3,2,"na Industries, Nimeli, Kunnathur, vellore - 632510",13.0479524,79.5434841
Chemists,Suresh Medicals,4,2,"1, Anna Salai, Vellore Bazaar, Vellore - 632004, Rajan Theatre Opp",12.9121873,79.1307141
